provider,network_name,station_name,latitude,longitude,station_opened,station_closed
BGR,GR,BUG,51.4412,7.2707,1991-09-01T00:00:00.000000Z,
BGR,GR,CLL,51.30803,13.00238,1993-04-01T00:00:00.000000Z,
BGR,GR,CLZ,51.8429,10.3741,1991-02-01T00:00:00.000000Z,
BGR,GR,GRA1,49.690776,11.220436,1976-02-17T00:00:00.000000Z,
BGR,GR,GRA2,49.654107,11.358088,1976-02-17T00:00:00.000000Z,
BGR,GR,GRA3,49.761076,11.31735,1976-02-17T00:00:00.000000Z,
BGR,GR,GRB4,49.467841,11.55948,1978-04-04T00:00:00.000000Z,
BGR,GR,GSH,50.737,6.3798,1995-07-13T00:00:00.000000Z,
BGR,GR,TNS,50.2236,8.4489,1991-05-01T00:00:00.000000Z,
BGR,GR,WET,49.1448,12.8803,1991-06-01T00:00:00.000000Z,
BGR,TH,SCHD,50.53513,11.21193,2008-05-20T00:00:00.000000Z,
BGR,TH,TAUT,50.98161,11.71074,2008-05-16T00:00:00.000000Z,
BGR,SX,GUNZ,50.3635,12.3316,2003-01-01T00:00:00.000000Z,
BGR,SX,MULD,50.4118,12.4039,2008-03-21T00:00:00.000000Z,
BGR,SX,ROHR,50.234,12.317,2002-08-21T00:00:00.000000Z,
BGR,SX,SCHF,50.6772,12.4031,2002-08-21T00:00:00.000000Z,
BGR,SX,TANN,50.415,12.461,2012-06-05T00:00:00.000000Z,
BGR,SX,WERD,50.448,12.307,2003-01-01T00:00:00.000000Z,
BGR,SX,WERN,50.2874,12.3761,2005-11-07T12:00:00.000000Z,
BGR,SX,FBE,50.92117,13.35414,2005-04-26T00:00:00.000000Z,
GEONET,NZ,BFZ,-40.679647283,176.246245098,1996-04-03T00:00:00.000000Z,
GEONET,NZ,BKZ,-39.165665643,176.492543736,2004-02-11T00:00:00.000000Z,
GEONET,NZ,HIZ,-38.51292897,174.855686101,2004-02-03T00:00:00.000000Z,
GEONET,NZ,KHZ,-42.41598,173.53897,1988-12-08T00:00:00.000000Z,
GEONET,NZ,QRZ,-40.825521618,172.529147829,1990-04-26T00:00:00.000000Z,
GEONET,NZ,URZ,-38.259249093,177.110894471,1990-10-09T00:00:00.000000Z,
GEONET,NZ,WPVZ,-39.20400432,175.545921935,2003-12-10T00:00:00.000000Z,2010-12-01T00:00:00.000000Z
ICGC,CA,CAVN,41.881578,0.750608,1999-06-01T00:00:00.000000Z,
ICGC,CA,CBEU,42.255629,2.675797,2007-05-01T00:00:00.000000Z,
ICGC,CA,CBRU,42.284408,2.179001,2000-12-01T00:00:00.000000Z,
ICGC,CA,CBUD,40.7044,0.8263,2016-03-09T00:00:00.000000Z,
ICGC,CA,CFAR,40.5604,0.6614,2016-03-01T00:00:00.000000Z,
ICGC,CA,CGAR,41.293309,1.913703,2001-08-01T00:00:00.000000Z,
ICGC,CA,CFON,41.761185,2.434581,1999-06-01T00:00:00.000000Z,
ICGC,CA,CLLI,42.478105,1.972973,1999-06-01T00:00:00.000000Z,
ICGC,CA,CMAS,40.72568,0.313875,2006-04-01T00:00:00.000000Z,
ICGC,CA,CORG,42.229088,1.316531,2001-02-01T00:00:00.000000Z,
ICGC,CA,CORI,41.972401,2.048795,2006-02-01T00:00:00.000000Z,
ICGC,CA,CPAL,42.310533,3.16244,2007-03-01T00:00:00.000000Z,
ICGC,CA,CSOR,42.374429,1.132743,2001-12-01T00:00:00.000000Z,
ICGC,CA,CARA,42.707643,0.818132,2011-11-16T00:00:00.000000Z,
ICGC,CA,CCAS,41.882875,2.904141,2005-12-16T00:00:00.000000Z,
ICGC,CA,ARBS,42.434492,1.533754,2009-10-01T00:00:00.000000Z,
ICGC,CA,COBS,40.7141,1.3573,2005-08-13T00:00:00.000000Z,
ICGC,ES,EOSO,28.0718,-15.5525,2002-01-17T00:00:00.000000Z,
ICGC,ES,ECAL,41.9413,-6.7371,2001-12-07T00:00:00.000000Z,
ICGC,ES,EMUR,37.8422,-1.2405,2000-01-15T00:00:00.000000Z,
ICGC,ES,EJON,42.4487,2.8886,2002-03-22T00:00:00.000000Z,
IPGP,WI,ABD,16.47438,-61.48807,2012-09-26T00:00:00.000000Z,
IPGP,WI,ANBD,17.048,-61.765,2014-09-17T00:00:00.000000Z,
IPGP,GL,MML,16.04454,-61.66907,2016-09-15T15:00:00.000000Z,
IPGP,GL,TAG,16.03908,-61.66835,1994-01-01T00:00:00.000000Z,
IPGP,GL,AMC,16.04768,-61.6659,2003-02-01T00:00:00.000000Z,
IPGP,GL,SCG,16.02636,-61.68604,1997-01-08T00:00:00.000000Z,
IPGP,GL,CDE,16.04069,-61.66064,1968-01-01T00:00:00.000000Z,
IPGP,G,RER,-21.1712,55.73986,1986-02-10T00:00:00.000000Z,
IPGP,G,PEL,-33.143607,-70.67494,1995-10-04T00:00:00.000000Z,
IPGP,G,NOUC,-22.09863,166.30665,1988-03-21T00:00:00.000000Z,
IPGP,G,DRV,-66.664908,140.002069,1986-02-01T00:00:00.000000Z,
IPGP,G,AIS,-37.79635,77.569186,1993-12-25T00:00:00.000000Z,
IPGP,G,CCD,-75.1065,123.305,2007-01-01T00:00:00.000000Z,
IPGP,G,CRZF,-46.43096,51.855308,1986-02-01T00:00:00.000000Z,
IPGP,G,COYC,-45.57299,-72.08139,2004-12-17T00:00:00.000000Z,
IPGP,G,FDF,14.734971,-61.146311,1998-11-25T00:00:00.000000Z,
IPGP,G,KIP,21.42,-158.0112,1986-04-17T00:00:00.000000Z,
IPGP,G,PPTF,-17.5896,-149.56525,2009-04-25T00:00:00.000000Z,
IPGP,G,CAN,-35.318715,148.996325,1987-11-27T00:00:00.000000Z,
IPGP,G,TRIS,-37.0681,-12.3152,2004-03-03T00:00:00.000000Z,
IPGP,G,HDC,10.00201,-84.11142,1997-03-08T00:00:00.000000Z,
IPGP,G,CLF,48.02579,2.26,2008-07-10T00:00:00.000000Z,
IPGP,G,UNM,19.329662,-99.178065,1990-06-06T00:00:00.000000Z,
IPGP,G,WUS,41.200716,79.216498,1988-10-31T00:00:00.000000Z,
IPGP,G,FOMA,-24.97565,46.978877,2008-09-01T00:00:00.000000Z,
IPGP,G,ROCAM,-19.75553,63.37014,2012-12-15T00:00:00.000000Z,
IPGP,G,MBO,14.392024,-16.955467,1985-09-01T00:00:00.000000Z,
IPGP,G,ATD,11.530725,42.846634,1993-07-07T00:00:00.000000Z,
IPGP,G,MPG,5.11011,-52.644483,2000-07-03T00:00:00.000000Z,
IPGP,G,TAOE,-8.85492,-140.14775,2004-11-01T20:00:00.000000Z,
IPGP,G,DZM,-22.07164,166.44377,2003-09-01T00:00:00.000000Z,
IRIS,2H,ICEZ,-77.551697,167.281998,2017-01-01T00:00:00.000000Z,
IRIS,2H,NAUS,-77.521896,167.150406,2016-12-18T00:00:00.000000Z,
IRIS,4F,VALP,32.5202,-97.1425,2017-03-10T00:00:00.000000Z,
IRIS,4F,VBB1,32.452,-97.2331,2015-05-10T00:00:00.000000Z,
IRIS,4F,VNLC,32.5759,-97.2036,2015-05-10T00:00:00.000000Z,
IRIS,4F,VSAB,32.4963,-97.2303,2015-05-10T00:00:00.000000Z,
IRIS,5H,ANNI,37.935001,-77.9655,2017-06-15T22:30:00.000000Z,
IRIS,5H,BEAR,37.528999,-78.287003,2017-03-30T18:00:00.000000Z,
IRIS,5H,BEAV,37.998402,-77.999298,2017-06-08T17:30:00.000000Z,
IRIS,5H,BUCK,37.452,-78.663498,2017-05-19T16:30:00.000000Z,
IRIS,5H,DAVE,37.551201,-78.370102,2017-04-21T16:00:00.000000Z,
IRIS,5H,DEBI,37.922401,-78.099197,2017-06-15T18:30:00.000000Z,
IRIS,5H,FORK,37.7425,-78.268799,2017-04-28T18:30:00.000000Z,
IRIS,5H,GARY,37.924,-78.0159,2017-06-16T16:30:00.000000Z,
IRIS,5H,GATE,37.7887,-78.407402,2017-06-09T15:30:00.000000Z,
IRIS,5H,GOLD,37.683601,-78.368103,2017-06-23T19:30:00.000000Z,
IRIS,5H,GOOD,37.603199,-78.644798,2017-09-07T20:30:00.000000Z,
IRIS,5H,GREG,37.3825,-79.539299,2017-06-24T17:30:00.000000Z,
IRIS,5H,HOPK,37.963001,-78.018799,2017-05-12T15:00:00.000000Z,
IRIS,5H,JILL,37.9781,-77.824898,2017-03-31T17:00:00.000000Z,
IRIS,5H,KNDY,37.5835,-78.466202,2017-06-23T16:00:00.000000Z,
IRIS,5H,MARK,37.933498,-78.035004,2017-04-28T22:30:00.000000Z,
IRIS,5H,METL,37.889301,-77.969902,2017-05-11T21:00:00.000000Z,
IRIS,5H,NORA,37.920502,-77.983002,2017-06-16T15:00:00.000000Z,
IRIS,5H,PETT,37.978802,-77.812599,2017-04-29T17:30:00.000000Z,
IRIS,5H,PTTI,37.940399,-77.986198,2017-04-20T19:00:00.000000Z,
IRIS,5H,PWTN,37.533001,-77.986,2017-03-30T21:00:00.000000Z,
IRIS,5H,SHOE,37.972698,-78.0308,2017-04-29T15:00:00.000000Z,
IRIS,5H,TRCY,37.900002,-77.839798,2017-03-31T19:00:00.000000Z,
IRIS,7F,ARK1,35.266602,-92.403503,2010-01-01T00:00:00.000000Z,
IRIS,7F,ARK2,35.334099,-92.298203,2010-01-01T00:00:00.000000Z,
IRIS,7F,X201,35.292599,-92.362297,2010-01-01T00:00:00.000000Z,
IRIS,7F,X301,35.242199,-92.4002,2010-01-01T00:00:00.000000Z,
IRIS,9F,COVA,-43.612999,169.968002,2010-01-22T00:00:00.000000Z,
IRIS,9F,EORO,-43.425999,170.169006,2008-11-07T00:00:00.000000Z,
IRIS,9F,FRAN,-43.380001,170.160004,2009-02-07T00:00:00.000000Z,
IRIS,9F,GOVA,-43.639,170.503006,2009-02-17T03:44:00.000000Z,
IRIS,9F,LABE,-43.546001,170.244995,2008-12-09T00:00:00.000000Z,
IRIS,9F,MTBA,-43.688,169.641006,2013-03-27T11:59:59.000000Z,
IRIS,9F,POCR2,-43.352001,170.223007,2009-03-24T00:00:00.000000Z,
IRIS,9F,WHAT2,-43.278999,170.360001,2009-03-22T00:00:00.000000Z,
IRIS,9F,WHYM,-43.441002,170.371002,2008-11-11T23:14:00.000000Z,
IRIS,AC,BCI,42.3666,20.067499,2009-12-22T00:00:00.000000Z,
IRIS,AC,LSK,40.149899,20.5987,2010-01-01T00:00:00.000000Z,
IRIS,AC,PHP,41.6847,20.4408,2009-12-22T00:00:00.000000Z,
IRIS,AC,PUK,42.042599,19.892599,2009-12-22T00:00:00.000000Z,
IRIS,AC,TPE,40.294701,20.009399,2010-01-01T00:00:00.000000Z,
IRIS,AC,VLO,40.468601,19.495501,2009-12-22T00:00:00.000000Z,
IRIS,AE,113A,32.768299,-113.766701,2009-01-28T00:00:00.000000Z,
IRIS,AE,319A,31.3757,-109.280899,2011-12-01T00:00:00.000000Z,
IRIS,AE,BABIT,35.745548,-112.422218,2017-10-27T00:00:00.000000Z,
IRIS,AE,BARN,35.27668,-111.73571,2017-10-27T00:00:00.000000Z,
IRIS,AE,DUN6,32.553799,-109.090103,2016-01-01T00:00:00.000000Z,
IRIS,AE,PRCT,35.055786,-112.710289,2017-10-27T00:00:00.000000Z,
IRIS,AE,TONTO,33.649147,-111.007675,2017-10-27T00:00:00.000000Z,
IRIS,AE,U15A,36.428001,-112.291496,2011-12-01T00:00:00.000000Z,
IRIS,AE,W13A,35.097382,-113.894318,2011-12-01T00:00:00.000000Z,
IRIS,AE,X16A,34.417801,-111.441101,2009-02-04T00:00:00.000000Z,
IRIS,AE,X18A,34.529301,-109.950104,2011-12-01T00:00:00.000000Z,
IRIS,AE,Y14A,33.938301,-113.004799,2011-12-01T00:00:00.000000Z,
IRIS,AF,ANKE,9.5827,39.741798,2009-05-07T00:00:00.000000Z,
IRIS,AF,BOBN,-1.66,29.23666,2012-02-23T00:00:00.000000Z,
IRIS,AF,CNG,-26.2917,32.1883,2005-11-03T00:00:00.000000Z,
IRIS,AF,CVNA,-31.482,19.762,2014-06-02T15:00:00.000000Z,
IRIS,AF,DODT,-6.186,35.748001,2007-02-11T00:00:00.000000Z,
IRIS,AF,GRM,-33.313,26.507999,2006-05-10T00:00:00.000000Z,
IRIS,AF,HVD,-30.605,25.497,2006-04-26T00:00:00.000000Z,
IRIS,AF,MOPA,-23.517,31.398,2017-03-15T00:00:00.000000Z,
IRIS,AF,PKA,-29.67,22.757,2006-10-16T00:00:00.000000Z,
IRIS,AF,POGA,-27.346,31.707,2014-06-05T00:00:00.000000Z,
IRIS,AF,SEK,-28.323,27.625,2006-04-16T00:00:00.000000Z,
IRIS,AF,SOE,-32.712002,25.562,2008-09-28T00:00:00.000000Z,
IRIS,AF,TEBE,0.0536,32.483002,2007-11-14T00:00:00.000000Z,
IRIS,AF,TEZI,-15.747,26.016001,2006-01-10T00:00:00.000000Z,
IRIS,AF,UPI,-28.362,21.253,,
IRIS,AF,WDLM,-26.424,27.422,2019-08-22T13:00:00.000000Z,
IRIS,AG,CCAR,33.917,-91.772,2010-02-24T00:00:00.000000Z,
IRIS,AG,FCAR,35.89,-92.124,2010-02-16T00:00:00.000000Z,
IRIS,AG,HHAR,36.282,-93.94,2010-03-03T00:00:00.000000Z,
IRIS,AG,LCAR,36.07,-91.154,2010-02-10T00:00:00.000000Z,
IRIS,AG,U40A,36.3563,-92.8535,2016-06-21T17:00:00.000000Z,
IRIS,AG,WHAR,35.29,-92.289,2010-02-15T00:00:00.000000Z,
IRIS,AG,WLAR,33.688,-93.112,2010-02-23T00:00:00.000000Z,
IRIS,AG,X40A,34.4873,-92.8342,2016-06-22T17:00:00.000000Z,
IRIS,AK,ANM,64.5646,-165.3732,2010-06-21T00:00:00.000000Z,
IRIS,AK,ATKA,52.201599,-174.197495,2002-10-03T00:00:00.000000Z,
IRIS,AK,BAGL,60.489601,-142.091507,2013-01-01T00:00:00.000000Z,
IRIS,AK,BAL,61.035999,-142.346207,2010-06-18T00:00:00.000000Z,
IRIS,AK,BARK,60.403,-142.493103,2013-01-01T00:00:00.000000Z,
IRIS,AK,BARN,61.059502,-141.662201,2013-01-01T00:00:00.000000Z,
IRIS,AK,BCP,59.9534,-139.6369,2011-08-15T00:00:00.000000Z,
IRIS,AK,BERG,60.3932,-143.700394,2013-01-01T00:00:00.000000Z,
IRIS,AK,BESE,58.5792,-134.8559,2003-09-20T00:00:00.000000Z,
IRIS,AK,BGLC,60.1205,-143.2841,2005-07-16T00:00:00.000000Z,
IRIS,AK,BMR,60.9677,-144.6051,2000-08-07T00:00:00.000000Z,
IRIS,AK,BPAW,64.099701,-150.987305,2004-05-13T00:00:00.000000Z,
IRIS,AK,BRLK,59.7511,-150.9063,2008-07-01T00:00:00.000000Z,
IRIS,AK,BRSE,59.741699,-150.741394,2013-07-01T00:00:00.000000Z,
IRIS,AK,BWN,64.173203,-149.299103,2009-08-27T00:00:00.000000Z,
IRIS,AK,CAPN,60.768299,-151.1539,2013-07-01T00:00:00.000000Z,
IRIS,AK,CAST,63.4188,-152.084396,2006-08-05T00:00:00.000000Z,
IRIS,AK,CCB,64.6453,-147.8053,2009-01-28T00:00:00.000000Z,
IRIS,AK,CHI,55.8218,-155.6225,2008-09-15T00:00:00.000000Z,
IRIS,AK,CHN,54.831001,-159.589493,2013-06-27T00:00:00.000000Z,
IRIS,AK,CHUM,63.8827,-152.3152,2004-06-02T00:00:00.000000Z,
IRIS,AK,CNP,59.5251,-151.2373,2008-07-24T00:00:00.000000Z,
IRIS,AK,COLD,67.2269,-150.2038,2004-05-19T00:00:00.000000Z,
IRIS,AK,COLD,67.2278,-150.207,,
IRIS,AK,CRQ,60.7523,-143.092606,2010-06-20T00:00:00.000000Z,
IRIS,AK,CTG,60.9649,-141.3401,2010-06-18T00:00:00.000000Z,
IRIS,AK,CUT,62.4058,-150.2625,2014-05-15T00:00:00.000000Z,
IRIS,AK,CYK,60.082298,-142.487198,2010-07-21T00:00:00.000000Z,
IRIS,AK,DCPH,59.090599,-138.215393,2002-08-03T00:00:00.000000Z,
IRIS,AK,DHY,63.075298,-147.3759,2008-07-09T00:00:00.000000Z,
IRIS,AK,DIV,61.1292,-145.7749,1999-01-07T00:00:00.000000Z,
IRIS,AK,DOT,63.648201,-144.069702,2003-10-15T00:00:00.000000Z,
IRIS,AK,EYAK,60.548698,-145.75,2002-10-03T00:00:00.000000Z,
IRIS,AK,FALS,54.8564,-163.417603,2002-06-19T00:00:00.000000Z,
IRIS,AK,FIB,61.1656,-150.177505,1996-01-04T00:00:00.000000Z,
IRIS,AK,FID,60.727699,-146.598694,2010-07-26T00:00:00.000000Z,
IRIS,AK,FIRE,61.142601,-150.2164,2013-07-20T00:00:00.000000Z,
IRIS,AK,FYU,66.565697,-145.234207,2009-07-23T00:00:00.000000Z,
IRIS,AK,GAMB,63.775799,-171.703598,2002-02-23T00:00:00.000000Z,
IRIS,AK,GCSA,64.745499,-156.881805,2000-06-24T00:00:00.000000Z,
IRIS,AK,GCSA,64.746101,-156.879196,2000-06-24T00:00:00.000000Z,
IRIS,AK,GHO,61.771,-148.926,2011-05-30T00:00:00.000000Z,
IRIS,AK,GLB,61.4417,-143.8123,2010-09-12T00:00:00.000000Z,
IRIS,AK,GLI,60.8792,-147.095901,2010-07-26T00:00:00.000000Z,
IRIS,AK,GLM,64.987801,-147.399902,2011-10-19T00:00:00.000000Z,
IRIS,AK,GOAT,60.580502,-144.729202,2013-01-01T00:00:00.000000Z,
IRIS,AK,GRIN,60.2805,-143.321,2005-07-22T00:00:00.000000Z,
IRIS,AK,GRNC,60.731499,-141.755798,2013-01-01T00:00:00.000000Z,
IRIS,AK,HARP,62.3986,-145.1567,2002-11-09T00:00:00.000000Z,
IRIS,AK,HARP,62.3987,-145.1568,,
IRIS,AK,HDA,64.4095,-146.9477,2008-09-03T00:00:00.000000Z,
IRIS,AK,HDA,64.4091,-146.9482,2012-10-01T00:00:00.000000Z,
IRIS,AK,HIN,60.396,-146.503494,2009-11-01T00:00:00.000000Z,
IRIS,AK,HMT,60.3351,-144.2623,2011-07-16T00:00:00.000000Z,
IRIS,AK,HOM,59.6572,-151.651505,2009-06-18T00:00:00.000000Z,
IRIS,AK,ISLE,60.6024,-142.3406,2006-07-04T00:00:00.000000Z,
IRIS,AK,JIS,58.275799,-134.384796,2001-04-11T00:00:00.000000Z,
IRIS,AK,KAI,59.9268,-144.418793,2011-07-10T00:00:00.000000Z,
IRIS,AK,KHIT,60.442699,-143.251007,2013-01-01T00:00:00.000000Z,
IRIS,AK,KIAG,60.9231,-142.360504,2013-01-01T00:00:00.000000Z,
IRIS,AK,KLU,61.4924,-145.9227,2008-09-13T00:00:00.000000Z,
IRIS,AK,KNK,61.4131,-148.4585,2010-06-13T00:00:00.000000Z,
IRIS,AK,KOTZ,66.895103,-162.600006,2014-05-06T00:00:00.000000Z,
IRIS,AK,KTH,63.5527,-150.923294,2003-06-08T00:00:00.000000Z,
IRIS,AK,KULT,60.247398,-142.723404,2013-01-01T00:00:00.000000Z,
IRIS,AK,LOGN,60.824001,-141.004807,2013-01-01T00:00:00.000000Z,
IRIS,AK,MCAR,61.3836,-143.024,2013-01-01T00:00:00.000000Z,
IRIS,AK,MCK,63.7318,-148.937302,1998-08-15T00:00:00.000000Z,
IRIS,AK,MDM,64.9602,-148.2319,2008-08-15T00:00:00.000000Z,
IRIS,AK,MESA,60.178501,-141.9505,2013-01-01T00:00:00.000000Z,
IRIS,AK,MESA,60.1782,-141.949799,2013-01-01T00:00:00.000000Z,
IRIS,AK,MLY,65.030403,-150.744202,2009-08-05T00:00:00.000000Z,
IRIS,AK,NEA,64.592201,-149.070602,2012-05-01T00:00:00.000000Z,
IRIS,AK,NEA2,64.5928,-149.0694,2014-06-12T00:00:00.000000Z,
IRIS,AK,NICH,60.2357,-143.9713,2005-07-18T00:00:00.000000Z,
IRIS,AK,NIKH,52.972099,-168.854996,2007-06-21T00:00:00.000000Z,
IRIS,AK,NKA,60.7425,-151.239502,2012-09-20T00:00:00.000000Z,
IRIS,AK,PAX,62.969898,-145.469894,2003-10-06T00:00:00.000000Z,
IRIS,AK,PIN,60.095901,-140.252502,2003-05-28T00:00:00.000000Z,
IRIS,AK,PNL,59.667,-139.401398,2001-08-16T00:00:00.000000Z,
IRIS,AK,PPD,65.517403,-145.524597,2011-09-05T00:00:00.000000Z,
IRIS,AK,PPLA,62.896198,-152.189407,2002-12-11T00:00:00.000000Z,
IRIS,AK,PTPK,61.187099,-142.467194,2013-01-01T00:00:00.000000Z,
IRIS,AK,PWL,60.858398,-148.333405,2010-09-13T00:00:00.000000Z,
IRIS,AK,RAG,60.3863,-144.6773,2006-06-16T00:00:00.000000Z,
IRIS,AK,RC01,61.088902,-149.738998,1998-08-07T00:00:00.000000Z,
IRIS,AK,RDOG,68.0541,-162.908005,2009-06-20T00:00:00.000000Z,
IRIS,AK,RIDG,63.7399,-144.8462,2007-07-01T00:00:00.000000Z,
IRIS,AK,RKAV,60.2994,-141.347794,2013-01-01T00:00:00.000000Z,
IRIS,AK,RND,63.405602,-148.860199,2008-06-15T00:00:00.000000Z,
IRIS,AK,SAMH,60.129398,-140.782806,2013-01-01T00:00:00.000000Z,
IRIS,AK,SAW,61.806999,-148.331604,1999-11-07T00:00:00.000000Z,
IRIS,AK,SCM,61.832001,-147.328995,2009-06-28T00:00:00.000000Z,
IRIS,AK,SCRK,63.976101,-143.990494,2007-07-01T00:00:00.000000Z,
IRIS,AK,SGA,60.5341,-145.208206,2010-09-15T00:00:00.000000Z,
IRIS,AK,SII,56.5593,-154.1842,2007-08-29T00:00:00.000000Z,
IRIS,AK,SKN,61.98,-151.5317,2006-05-15T00:00:00.000000Z,
IRIS,AK,SLK,60.5117,-150.223099,2013-07-01T00:00:00.000000Z,
IRIS,AK,SSN,61.4636,-150.7467,2008-08-15T00:00:00.000000Z,
IRIS,AK,SSP,60.1791,-142.8388,2011-07-30T00:00:00.000000Z,
IRIS,AK,SUCK,60.071999,-143.779007,2013-01-01T00:00:00.000000Z,
IRIS,AK,SWD,60.1043,-149.4526,2001-06-04T00:00:00.000000Z,
IRIS,AK,TABL,60.439899,-141.144302,2013-01-01T00:00:00.000000Z,
IRIS,AK,TGL,60.754101,-142.829193,2010-06-19T00:00:00.000000Z,
IRIS,AK,TNA,65.559799,-167.926697,1998-10-24T00:00:00.000000Z,
IRIS,AK,TRF,63.450199,-150.289307,2003-06-06T00:00:00.000000Z,
IRIS,AK,TRF,63.4501,-150.2892,2003-06-06T00:00:00.000000Z,
IRIS,AK,UNV,53.8452,-166.504501,1999-02-19T00:00:00.000000Z,
IRIS,AK,VRDI,61.227501,-143.454498,2013-01-01T00:00:00.000000Z,
IRIS,AK,WAT1,62.8295,-148.5509,2012-08-12T00:00:00.000000Z,
IRIS,AK,WAT2,62.962799,-148.585495,2012-08-13T00:00:00.000000Z,
IRIS,AK,WAT3,62.681198,-148.537704,2012-08-12T00:00:00.000000Z,
IRIS,AK,WAT4,62.8349,-147.942093,2012-08-12T00:00:00.000000Z,
IRIS,AK,WAT6,62.580799,-147.740005,2013-08-01T00:00:00.000000Z,
IRIS,AK,WAT7,62.8331,-148.8476,2013-08-01T00:00:00.000000Z,
IRIS,AK,WAX,60.448002,-142.852905,2011-07-23T00:00:00.000000Z,
IRIS,AK,WRH,64.4716,-148.0918,2009-06-30T00:00:00.000000Z,
IRIS,AK,YAH,60.358299,-141.751007,2011-08-18T00:00:00.000000Z,
IRIS,AO,OSAR,35.706402,-90.012558,2011-09-06T00:00:00.000000Z,
IRIS,AT,AKUT,54.13517,-165.771851,2004-11-17T00:00:00.000000Z,
IRIS,AT,CHGN,56.301399,-158.414154,2011-08-10T00:00:00.000000Z,
IRIS,AT,CRAG,55.468941,-133.122971,2004-12-10T00:00:00.000000Z,
IRIS,AT,MENT,62.938049,-143.719421,2010-12-02T00:00:00.000000Z,
IRIS,AT,MID,59.427799,-146.338806,2007-10-18T00:00:00.000000Z,
IRIS,AT,OHAK,57.2225,-153.287506,2006-06-23T00:00:00.000000Z,
IRIS,AT,PMR,61.592201,-149.130798,1999-08-11T00:00:00.000000Z,
IRIS,AT,SDPT,55.3493,-160.476593,2002-08-28T00:00:00.000000Z,
IRIS,AT,SIT,57.0569,-135.324402,1999-08-11T00:00:00.000000Z,
IRIS,AT,SKAG,59.460098,-135.328964,2004-10-13T00:00:00.000000Z,
IRIS,AT,SVW2,61.1082,-155.621704,2008-07-02T02:09:00.000000Z,
IRIS,AT,TTA,62.930099,-156.011597,2010-05-13T00:00:00.000000Z,
IRIS,AT,YKU2,59.5121,-139.671036,2009-08-26T00:00:00.000000Z,
IRIS,AU,ARMA,-30.4198,151.628006,2004-03-19T00:00:00.000000Z,
IRIS,AU,ARMA,-30.418301,151.629303,2004-03-19T00:00:00.000000Z,
IRIS,AU,ARPS,-36.769901,141.838303,2000-10-28T00:00:00.000000Z,
IRIS,AU,AS31,-23.666,133.904007,2005-06-21T00:00:00.000000Z,
IRIS,AU,BBOO,-32.809601,136.058304,2004-08-09T00:00:00.000000Z,
IRIS,AU,BBOO,-32.8102,136.058807,2004-08-09T00:00:00.000000Z,
IRIS,AU,BLDU,-30.6147,116.709099,2003-05-27T00:00:00.000000Z,
IRIS,AU,CNB,-35.312401,149.362,2003-04-08T00:00:00.000000Z,
IRIS,AU,CNB,-35.314999,149.363297,2007-08-01T00:00:00.000000Z,
IRIS,AU,COEN,-13.9563,143.175705,2003-06-14T00:00:00.000000Z,
IRIS,AU,COEN,-13.9574,143.174896,2003-06-14T00:00:00.000000Z,
IRIS,AU,CORO,-41.452202,147.145004,2009-11-20T00:00:00.000000Z,
IRIS,AU,CTA,-20.0876,146.25,1994-10-20T00:00:00.000000Z,
IRIS,AU,EIDS,-25.369101,151.081696,2003-06-23T00:00:00.000000Z,
IRIS,AU,FITZ,-18.0982,125.640297,1994-08-31T00:00:00.000000Z,
IRIS,AU,FORT,-30.779,128.059,1994-01-01T00:00:00.000000Z,
IRIS,AU,GEXS,-38.200802,144.289993,2013-03-26T00:00:00.000000Z,
IRIS,AU,GIRL,-22.643,114.234001,1995-09-04T00:00:00.000000Z,
IRIS,AU,HTT,-33.4306,138.9217,2009-07-01T00:00:00.000000Z,
IRIS,AU,INKA,-27.740999,140.745605,2013-06-21T00:00:00.000000Z,
IRIS,AU,KLBR,-31.591499,117.754601,2003-05-29T00:00:00.000000Z,
IRIS,AU,KMBL,-31.3669,121.8821,2000-11-27T00:00:00.000000Z,
IRIS,AU,KNRA,-15.6769,128.762802,2008-08-21T00:00:00.000000Z,
IRIS,AU,LCRK,-30.447201,138.216202,2013-06-16T00:00:00.000000Z,
IRIS,AU,MABG,-34.0721,150.7601,2016-08-17T00:00:00.000000Z,
IRIS,AU,MANU,-2.0432,147.366196,2009-05-26T00:00:00.000000Z,
IRIS,AU,MCQ,-54.4986,158.9561,2004-06-28T00:00:00.000000Z,
IRIS,AU,MEEK,-26.638,118.614998,2003-06-25T00:00:00.000000Z,
IRIS,AU,MGCD,-33.2096,151.1092,1996-12-10T00:00:00.000000Z,
IRIS,AU,MILA,-37.0547,149.155,2006-04-11T00:00:00.000000Z,
IRIS,AU,MORW,-29.0683,116.038803,2003-05-26T00:00:00.000000Z,
IRIS,AU,MORW,-29.0679,116.040298,2003-05-26T00:00:00.000000Z,
IRIS,AU,MTN,-12.8436,131.132706,2006-08-11T00:00:00.000000Z,
IRIS,AU,MTSU,-18.148199,144.319504,2002-11-06T00:00:00.000000Z,
IRIS,AU,MULG,-30.281799,134.058502,2013-05-28T00:00:00.000000Z,
IRIS,AU,MUN,-31.9783,116.208298,2001-05-31T00:00:00.000000Z,
IRIS,AU,NFK,-29.043301,167.938904,2008-05-20T00:00:00.000000Z,
IRIS,AU,NWAO,-32.9277,117.239,1994-01-01T00:00:00.000000Z,
IRIS,AU,OOD,-27.794399,135.688004,2013-05-24T00:00:00.000000Z,
IRIS,AU,PSA00,-21.5725,119.845802,2011-01-01T00:00:00.000000Z,
IRIS,AU,PSAA1,-21.576689,119.836227,2011-01-01T00:00:00.000000Z,
IRIS,AU,PSAA2,-21.562828,119.846695,2011-01-01T00:00:00.000000Z,
IRIS,AU,PSAA3,-21.578085,119.854874,2011-01-01T00:00:00.000000Z,
IRIS,AU,PSAB1,-21.568909,119.821869,2011-01-01T00:00:00.000000Z,
IRIS,AU,PSAB2,-21.55485,119.861053,2011-01-01T00:00:00.000000Z,
IRIS,AU,PSAB3,-21.593241,119.854675,2011-01-01T00:00:00.000000Z,
IRIS,AU,PSAC1,-21.533709,119.809319,2011-01-01T00:00:00.000000Z,
IRIS,AU,PSAD3,-21.642984,119.779861,2011-01-01T00:00:00.000000Z,
IRIS,AU,QIS,-20.557699,139.605194,2005-02-06T00:00:00.000000Z,
IRIS,AU,QLP,-26.5837,144.235001,2003-11-13T00:00:00.000000Z,
IRIS,AU,RABL,-4.1912,152.163696,2009-04-26T00:00:00.000000Z,
IRIS,AU,RIV,-33.829399,151.158295,2004-11-09T00:00:00.000000Z,
IRIS,AU,RMQ,-26.489,148.755005,2004-11-22T21:00:00.000000Z,
IRIS,AU,STKA,-31.8757,141.596405,1994-03-29T00:00:00.000000Z,
IRIS,AU,TOO,-37.5714,145.490601,2003-06-25T00:00:00.000000Z,
IRIS,AU,WB2,-19.942753,134.35112,1994-01-01T00:00:00.000000Z,
IRIS,AU,WHYH,-33.033001,137.574402,2009-01-01T00:00:00.000000Z,
IRIS,AU,WOLH,-34.407,150.874,2011-03-23T00:00:00.000000Z,
IRIS,AU,WRKA,-25.0375,128.296097,2009-04-26T00:00:00.000000Z,
IRIS,AU,XMI,-10.4495,105.689499,2007-11-19T00:00:00.000000Z,
IRIS,AU,XMI,-10.4501,105.6884,2007-11-19T00:00:00.000000Z,
IRIS,AU,YARR,-33.6174,150.6877,2016-11-29T00:00:00.000000Z,
IRIS,AU,YNG,-34.298,148.3963,2004-04-16T00:00:00.000000Z,
IRIS,AV,ACH,58.21,-155.3281,2005-11-01T00:00:00.000000Z,
IRIS,AV,AHB,54.1144,-165.8177,2005-11-01T00:00:00.000000Z,
IRIS,AV,AKBB,54.0975,-165.9338,2005-11-01T00:00:00.000000Z,
IRIS,AV,AKGG,54.1979,-165.9936,2003-06-27T00:00:00.000000Z,
IRIS,AV,AKHS,54.1533,-165.8868,2018-08-08T00:00:00.000000Z,
IRIS,AV,AKLV,54.1618,-165.9576,2005-11-01T00:00:00.000000Z,
IRIS,AV,AKMO,54.0903,-166.0126,2005-11-01T00:00:00.000000Z,
IRIS,AV,AKRB,54.1292,-166.0708,2003-06-29T00:00:00.000000Z,
IRIS,AV,AKS,54.1095,-165.6987,2005-11-01T00:00:00.000000Z,
IRIS,AV,AKSA,54.1095,-165.6987,2011-07-05T00:00:00.000000Z,
IRIS,AV,AKV,54.1253,-165.9647,2005-11-01T00:00:00.000000Z,
IRIS,AV,AMKA,51.378682,179.301832,2005-10-14T00:00:00.000000Z,
IRIS,AV,ANCK,58.1981,-155.4961,2005-11-01T00:00:00.000000Z,
IRIS,AV,ANNE,56.9119,-158.061,2005-11-01T00:00:00.000000Z,
IRIS,AV,ANNW,56.9656,-158.217,2005-11-01T00:00:00.000000Z,
IRIS,AV,ANON,56.919,-158.1737,2005-11-01T00:00:00.000000Z,
IRIS,AV,ANPB,56.8016,-158.2829,2005-11-01T00:00:00.000000Z,
IRIS,AV,ANPK,56.8409,-158.1283,2005-11-01T00:00:00.000000Z,
IRIS,AV,AU22,59.3702,-153.3573,2005-11-01T00:00:00.000000Z,
IRIS,AV,AUCH,59.3626,-153.4447,2013-08-20T00:00:00.000000Z,
IRIS,AV,AUI,59.3345,-153.4299,2005-11-01T00:00:00.000000Z,
IRIS,AV,AUJA,59.3395,-153.4227,2013-08-20T00:00:00.000000Z,
IRIS,AV,AUL,59.3816,-153.4379,2005-11-01T00:00:00.000000Z,
IRIS,AV,AUNW,59.3775,-153.479,2006-03-15T00:00:00.000000Z,
IRIS,AV,AUQ,59.3549,-153.4143,2005-11-01T00:00:00.000000Z,
IRIS,AV,AUSB,59.333,-153.4284,2015-08-29T00:00:00.000000Z,
IRIS,AV,AUWS,59.35851,-153.46115,2015-06-14T00:00:00.000000Z,
IRIS,AV,BLDY,55.1936,-162.7856,2005-11-01T00:00:00.000000Z,
IRIS,AV,CERB,51.9302,179.6277,2005-09-18T00:00:00.000000Z,
IRIS,AV,CLCO,52.7866,-169.7229,2014-08-09T00:00:00.000000Z,
IRIS,AV,CLES,52.8235,-169.8951,2014-08-09T00:00:00.000000Z,
IRIS,AV,CRP,61.2664,-152.1578,2005-11-01T00:00:00.000000Z,
IRIS,AV,GASW,51.7778,-178.8566,2005-11-01T00:00:00.000000Z,
IRIS,AV,GSTD,52.0548,-176.1468,2005-11-01T00:00:00.000000Z,
IRIS,AV,ILNE,60.0573,-153.06354,2016-08-31T00:00:00.000000Z,
IRIS,AV,ILS,59.957,-153.0703,2005-11-01T00:00:00.000000Z,
IRIS,AV,ILSW,59.9832,-153.1425,2015-08-13T00:00:00.000000Z,
IRIS,AV,ISLZ,54.7249,-163.7129,2008-08-12T00:00:00.000000Z,
IRIS,AV,IVE,60.0163,-153.0185,2005-11-01T00:00:00.000000Z,
IRIS,AV,KABU,58.2702,-155.2843,2004-08-01T00:00:00.000000Z,
IRIS,AV,KAHG,58.4933,-154.5484,2005-11-01T00:00:00.000000Z,
IRIS,AV,KAKN,58.2963,-155.0632,2005-11-01T00:00:00.000000Z,
IRIS,AV,KAPH,58.5961,-154.3489,2005-11-01T00:00:00.000000Z,
IRIS,AV,KCG,58.3069,-155.1135,2005-11-01T00:00:00.000000Z,
IRIS,AV,KOKV,52.3603,-174.1673,2005-11-01T00:00:00.000000Z,
IRIS,AV,LSPA,51.9557,178.5714,2005-09-30T00:00:00.000000Z,
IRIS,AV,LVA,54.16,-166.0358,2005-11-01T00:00:00.000000Z,
IRIS,AV,MAPS,53.8082,-166.9407,2012-08-02T00:00:00.000000Z,
IRIS,AV,MGOD,53.7938,-166.878,2005-11-01T00:00:00.000000Z,
IRIS,AV,MNAT,53.8829,-166.6856,2005-11-01T00:00:00.000000Z,
IRIS,AV,MSW,53.9148,-166.788,2005-11-01T00:00:00.000000Z,
IRIS,AV,MTBL,53.968,-166.6813,2005-11-01T00:00:00.000000Z,
IRIS,AV,NCT,60.5621,-152.9293,2005-11-01T00:00:00.000000Z,
IRIS,AV,OKCE,53.4261,-168.16629,2005-11-01T00:00:00.000000Z,
IRIS,AV,OKFG,53.41078,-167.91141,2005-11-01T00:00:00.000000Z,
IRIS,AV,OKNC,53.4559,-168.12553,2010-09-02T00:00:00.000000Z,
IRIS,AV,OKSO,53.3565,-168.1619,2005-11-01T00:00:00.000000Z,
IRIS,AV,OKSP,53.2516,-168.2925,2005-11-01T00:00:00.000000Z,
IRIS,AV,PLK3,57.688,-156.2695,2005-11-01T00:00:00.000000Z,
IRIS,AV,PLWL,58.0442,-156.3434,2005-11-01T00:00:00.000000Z,
IRIS,AV,PN7A,55.4329,-161.9973,1999-02-24T00:00:00.000000Z,
IRIS,AV,PS1A,55.4201,-161.7437,2005-11-01T00:00:00.000000Z,
IRIS,AV,PS4A,55.346,-161.8567,2005-11-01T00:00:00.000000Z,
IRIS,AV,PV6,55.4528,-161.9205,2005-11-01T00:00:00.000000Z,
IRIS,AV,PV6A,55.507,-161.9714,2016-07-04T00:00:00.000000Z,
IRIS,AV,RDJH,60.5905,-152.8058,2009-02-04T00:00:00.000000Z,
IRIS,AV,RDSO,60.4536,-152.7453,2011-08-29T00:00:00.000000Z,
IRIS,AV,RDT,60.5726,-152.4075,2005-11-01T00:00:00.000000Z,
IRIS,AV,RDWB,60.486807,-152.843634,2009-02-24T00:00:00.000000Z,
IRIS,AV,RED,60.4196,-152.7742,2005-11-01T00:00:00.000000Z,
IRIS,AV,REF,60.4888,-152.694,2005-11-01T00:00:00.000000Z,
IRIS,AV,SPBG,61.2591,-152.3722,2004-09-09T00:00:00.000000Z,
IRIS,AV,SPCG,61.2913,-152.0228,2005-11-01T00:00:00.000000Z,
IRIS,AV,SPCN,61.2244,-152.1854,2010-09-01T00:00:00.000000Z,
IRIS,AV,SPCP,61.2655,-152.155,2010-10-02T00:00:00.000000Z,
IRIS,AV,SPCR,61.2003,-152.2091,2005-11-01T00:00:00.000000Z,
IRIS,AV,SPNN,61.3662,-152.7012,2011-07-31T00:00:00.000000Z,
IRIS,AV,SPU,61.1811,-152.0566,2005-11-01T00:00:00.000000Z,
IRIS,AV,SSBA,54.7718,-164.1265,2008-07-31T00:00:00.000000Z,
IRIS,AV,SSLS,54.7111,-164.0008,2005-11-01T00:00:00.000000Z,
IRIS,AV,STLK,61.4982,-151.8349,2005-11-01T00:00:00.000000Z,
IRIS,AV,TAFP,51.899,-177.9853,2005-11-01T00:00:00.000000Z,
IRIS,AV,VNKR,56.0304,-159.3699,2005-11-01T00:00:00.000000Z,
IRIS,AV,VNNF,56.2829,-159.3181,2005-11-01T00:00:00.000000Z,
IRIS,AV,VNSW,56.0712,-159.5606,2005-11-01T00:00:00.000000Z,
IRIS,AV,WACK,61.9858,-144.3305,2005-11-01T00:00:00.000000Z,
IRIS,AV,WAZA,62.0746,-144.1544,2005-11-01T00:00:00.000000Z,
IRIS,AV,WEBT,54.5902,-164.755,2008-08-02T00:00:00.000000Z,
IRIS,AV,WECS,54.53,-164.7796,2008-08-04T00:00:00.000000Z,
IRIS,AV,WESP,54.4926,-164.7233,2008-07-31T00:00:00.000000Z,
IRIS,AX,AUA2,12.441678,-69.917442,2014-01-01T00:00:00.000000Z,
IRIS,AZ,BZN,33.4915,-116.667,1983-01-20T00:00:00.000000Z,
IRIS,AZ,CPE,32.888901,-117.105103,2004-05-04T00:00:00.000000Z,
IRIS,AZ,CRY,33.565399,-116.737297,1982-10-01T00:00:00.000000Z,
IRIS,AZ,FRD,33.494701,-116.602203,1982-10-01T00:00:00.000000Z,
IRIS,AZ,HWB,33.026199,-116.959602,2002-02-07T00:00:00.000000Z,
IRIS,AZ,KNW,33.7141,-116.7119,1982-10-01T00:00:00.000000Z,
IRIS,AZ,LVA2,33.351601,-116.561501,1993-04-18T00:00:00.000000Z,
IRIS,AZ,MONP2,32.891998,-116.422302,2007-09-15T00:00:00.000000Z,
IRIS,AZ,PFO,33.611698,-116.459396,1982-10-01T00:00:00.000000Z,
IRIS,AZ,RDM,33.630001,-116.847801,1982-10-01T00:00:00.000000Z,
IRIS,AZ,SCI2,32.915,-118.4879,2002-09-23T00:00:00.000000Z,
IRIS,AZ,SIO5,32.840698,-117.249702,2017-05-23T00:00:00.000000Z,
IRIS,AZ,SMER,33.457699,-117.170799,2002-02-09T00:00:00.000000Z,
IRIS,AZ,SND,33.551899,-116.6129,1982-10-01T00:00:00.000000Z,
IRIS,AZ,SOL,32.841,-117.248001,1996-02-09T00:00:00.000000Z,
IRIS,AZ,TMSP,33.619202,-116.680901,2013-02-03T00:00:00.000000Z,
IRIS,AZ,TRO,33.5234,-116.4257,1982-10-01T00:00:00.000000Z,
IRIS,AZ,WMC,33.573601,-116.674698,1983-09-16T00:00:00.000000Z,
IRIS,BC,CBX,32.3131,-116.6636,2002-02-22T18:00:00.000000Z,
IRIS,BC,CCX,31.867887,-116.664459,2011-06-16T00:00:00.000000Z,
IRIS,BC,CPX,32.4195,-115.305,2009-10-30T20:00:00.000000Z,
IRIS,BC,GUVIX,32.302898,-115.075996,2014-06-13T00:00:00.000000Z,
IRIS,BC,PIX,31.562901,-113.4599,2011-07-15T00:00:00.000000Z,
IRIS,BC,RMX,32.5535,-116.0288,2011-10-11T00:00:00.000000Z,
IRIS,BC,SFX,31.0376,-114.851,2012-07-04T00:00:00.000000Z,
IRIS,BC,SJX,32.004799,-115.947998,2012-03-20T00:00:00.000000Z,
IRIS,BC,SLRCX,32.457901,-114.704903,2015-06-05T23:46:32.000000Z,
IRIS,BC,SPX,31.0451,-115.466,2001-06-01T00:00:00.000000Z,
IRIS,BC,TJX,32.51017,-117.054298,2011-08-08T00:00:00.000000Z,
IRIS,BC,TKX,32.5687,-116.6075,2011-10-11T00:00:00.000000Z,
IRIS,BC,UABX,32.6316,-115.4447,2011-06-30T00:00:00.000000Z,
IRIS,BC,VTX,31.391399,-115.783997,2011-11-09T00:00:00.000000Z,
IRIS,BE,MEM,50.608691,6.009614,2006-01-01T00:00:00.000000Z,
IRIS,BE,RCHB,50.155156,5.226787,2008-06-03T00:00:00.000000Z,
IRIS,BE,UCC,50.797241,4.36038,1998-04-01T00:00:00.000000Z,
IRIS,BK,BDM,37.95397,-121.86554,1998-11-12T00:00:00.000000Z,
IRIS,BK,BKS,37.87622,-122.23558,1987-05-05T00:00:00.000000Z,
IRIS,BK,BL67,37.87492,-122.243179,2011-04-15T18:00:00.000000Z,
IRIS,BK,BRIB,37.91886,-122.15179,1995-06-23T16:00:00.000000Z,
IRIS,BK,BRIB,37.91932,-122.15269,1995-06-23T16:00:00.000000Z,
IRIS,BK,BRK,37.87352,-122.26099,1996-08-16T00:00:00.000000Z,
IRIS,BK,CMB,38.03455,-120.386513,1986-10-25T00:00:00.000000Z,
IRIS,BK,CMSB,37.87195,-122.25168,1994-12-19T20:15:00.000000Z,
IRIS,BK,CVS,38.345261,-122.458397,1998-05-06T00:00:00.000000Z,
IRIS,BK,DANT,40.294601,-121.802101,2016-11-18T12:00:00.000000Z,
IRIS,BK,DCMP,39.46897,-123.337498,2017-07-28T23:59:00.000000Z,
IRIS,BK,ELFS,40.61835,-120.72791,2005-05-19T00:00:00.000000Z,
IRIS,BK,FARB,37.69782,-123.0011,1997-03-15T00:00:00.000000Z,
IRIS,BK,GASB,39.65471,-122.71595,2005-09-22T00:00:00.000000Z,
IRIS,BK,HAST,36.388699,-121.551399,2006-02-02T00:00:00.000000Z,
IRIS,BK,HATC,40.8161,-121.46117,2005-05-18T00:00:00.000000Z,
IRIS,BK,HELL,36.680111,-119.02282,2005-04-09T00:00:00.000000Z,
IRIS,BK,HOPS,38.99349,-123.07234,1994-10-21T02:23:00.000000Z,
IRIS,BK,HULI,36.02134,-121.23554,2017-08-11T18:00:00.000000Z,
IRIS,BK,HUMO,42.6071,-122.95669,2002-06-18T00:00:00.000000Z,
IRIS,BK,JCC,40.81745,-124.02955,2001-04-11T21:27:00.000000Z,
IRIS,BK,JRSC,37.40373,-122.23868,1994-06-30T21:20:00.000000Z,
IRIS,BK,KCC,37.32363,-119.3187,1995-12-09T00:00:00.000000Z,
IRIS,BK,MCCM,38.14478,-122.88018,2006-02-03T18:30:00.000000Z,
IRIS,BK,MHC,37.34164,-121.64257,1986-09-10T00:00:00.000000Z,
IRIS,BK,MHDL,37.84232,-122.49431,2006-05-17T23:00:00.000000Z,
IRIS,BK,MIN,40.346008,-121.60656,1993-03-19T19:46:00.000000Z,
IRIS,BK,MNRC,38.87874,-122.44277,2003-06-19T15:00:00.000000Z,
IRIS,BK,MOD,41.90246,-120.30295,1999-10-16T00:00:00.000000Z,
IRIS,BK,MTOS,37.504902,-121.327797,2017-05-06T00:20:00.000000Z,
IRIS,BK,ORV,39.55451,-121.50036,1992-07-31T18:50:00.000000Z,
IRIS,BK,OXMT,37.49936,-122.42431,2003-12-20T00:10:00.000000Z,
IRIS,BK,PACP,37.008,-121.287,2003-06-19T15:00:00.000000Z,
IRIS,BK,PETB,38.1189,-122.501099,2010-09-10T01:00:00.000000Z,
IRIS,BK,PETY,40.1766,-122.7884,2017-09-14T23:59:00.000000Z,
IRIS,BK,PKD,35.94517,-120.5416,1996-09-06T16:28:00.000000Z,
IRIS,BK,RAMR,35.635971,-120.869843,2004-11-06T00:00:00.000000Z,
IRIS,BK,RFSB,37.91608,-122.3361,1996-01-29T22:00:00.000000Z,
IRIS,BK,SAO,36.76403,-121.44722,1988-01-28T00:00:00.000000Z,
IRIS,BK,SCCB,37.28744,-121.86422,2000-04-28T11:17:00.000000Z,
IRIS,BK,SCOT,41.391998,-122.853798,2017-06-14T23:45:00.000000Z,
IRIS,BK,SCZ,36.598,-121.403,2013-04-10T22:27:00.000000Z,
IRIS,BK,SHEP,41.7826,-121.839302,2016-12-21T01:17:00.000000Z,
IRIS,BK,STAN,37.403931,-122.175079,1991-08-20T00:20:00.000000Z,
IRIS,BK,SUTB,39.2291,-121.7861,2005-10-16T00:00:00.000000Z,
IRIS,BK,TCAS,35.609501,-120.560097,2015-02-24T19:00:00.000000Z,
IRIS,BK,TCHL,35.688122,-120.400917,2013-06-19T19:45:00.000000Z,
IRIS,BK,THIS,35.724049,-120.228447,2012-05-07T16:25:00.000000Z,
IRIS,BK,TRAM,35.67691,-120.270927,2012-12-13T00:46:00.000000Z,
IRIS,BK,TRAY,35.551682,-120.125832,2016-05-26T00:00:00.000000Z,
IRIS,BK,TRIN,40.9741,-122.705,2017-07-12T16:00:00.000000Z,
IRIS,BK,TSCN,35.54398,-120.348061,2012-03-09T00:00:00.000000Z,
IRIS,BK,TSCS,35.440701,-120.353699,2016-05-05T20:39:00.000000Z,
IRIS,BK,VAK,37.877525,-122.248894,2010-08-31T00:00:00.000000Z,
IRIS,BK,VALB,38.121498,-122.275299,2005-11-27T00:00:00.000000Z,
IRIS,BK,WDC,40.57988,-122.54113,1992-09-17T19:23:00.000000Z,
IRIS,BK,WENL,37.62211,-121.75697,1997-06-21T01:11:00.000000Z,
IRIS,BL,PMNB,-18.540001,-46.439999,2010-10-22T16:00:00.000000Z,
IRIS,BL,RCLB,-22.4191,-47.530998,2002-11-09T00:00:00.000000Z,
IRIS,BL,VABB,-23.002199,-46.965801,1995-09-28T00:00:00.000000Z,
IRIS,BL,VABB,-23.0021,-46.965698,1995-09-28T00:00:00.000000Z,
IRIS,C,AGCH,-37.809299,-72.696602,2004-11-15T00:00:00.000000Z,
IRIS,C,COCH,-36.131302,-72.788399,2010-08-13T00:00:00.000000Z,
IRIS,C,GO01,-19.6685,-69.1942,2011-08-01T00:00:00.000000Z,
IRIS,C,GO02,-25.1626,-69.5904,2011-08-01T00:00:00.000000Z,
IRIS,C,GO03,-27.5937,-70.2347,2011-08-01T00:00:00.000000Z,
IRIS,C,GO04,-30.1727,-70.7993,2011-07-15T00:00:00.000000Z,
IRIS,C,GO05,-35.0099,-71.9303,2011-06-30T00:00:00.000000Z,
IRIS,C,GO06,-39.5839,-71.472,2011-08-01T00:00:00.000000Z,
IRIS,C,GO07,-43.1142,-73.6644,2011-09-24T00:00:00.000000Z,
IRIS,C,GO08,-48.4648,-72.5566,2011-08-01T00:00:00.000000Z,
IRIS,C,GO09,-51.270699,-72.338097,2011-07-04T00:00:00.000000Z,
IRIS,C,GO10,-53.154598,-71.049797,2011-07-10T00:00:00.000000Z,
IRIS,C0,BRIGG,40.581287,-104.319221,2016-09-27T00:00:00.000000Z,
IRIS,C1,AC01,-26.14788,-70.59866,2012-08-13T00:00:00.000000Z,
IRIS,C1,AC02,-26.835517,-69.129067,2014-02-04T00:00:00.000000Z,
IRIS,C1,AC04,-28.204575,-71.073928,2014-02-08T00:00:00.000000Z,
IRIS,C1,AC05,-28.836377,-70.273777,2014-02-09T00:00:00.000000Z,
IRIS,C1,AC06,-27.357117,-70.354689,2015-08-28T13:49:46.000000Z,
IRIS,C1,AF01,-22.95196,-68.17876,2015-06-05T00:00:00.000000Z,
IRIS,C1,AP01,-18.37084,-70.34197,2013-11-16T00:00:00.000000Z,
IRIS,C1,AY01,-44.42092,-72.64803,2015-05-09T00:00:00.000000Z,
IRIS,C1,AY02,-46.48392,-73.19474,2015-04-07T00:00:00.000000Z,
IRIS,C1,AY03,-47.253042,-72.590769,2017-01-10T18:01:29.499000Z,
IRIS,C1,BI02,-36.6634,-71.2731,2014-01-10T00:00:00.000000Z,
IRIS,C1,BI05,-36.74784,-73.19051,2015-09-13T00:00:00.000000Z,
IRIS,C1,BO01,-34.3917,-71.0848,2014-02-06T00:00:00.000000Z,
IRIS,C1,BO02,-34.7924,-70.7814,2014-01-16T00:00:00.000000Z,
IRIS,C1,BO03,-34.49605,-71.9612,2014-10-29T00:00:00.000000Z,
IRIS,C1,BO04,-33.98884,-70.60902,2015-09-25T00:00:00.000000Z,
IRIS,C1,CO01,-29.9773,-70.0939,2014-02-11T00:00:00.000000Z,
IRIS,C1,CO02,-31.2037,-71.0003,2013-06-19T00:00:00.000000Z,
IRIS,C1,CO05,-29.91864,-71.23841,2015-04-02T00:00:00.000000Z,
IRIS,C1,CO06,-30.673813,-71.634987,2015-05-11T00:00:00.000000Z,
IRIS,C1,CO10,-29.24057,-71.46087,2017-10-16T18:19:31.000000Z,
IRIS,C1,LL02,-43.19055,-71.84838,2014-09-12T00:00:00.000000Z,
IRIS,C1,LL05,-41.405341,-73.47445,2015-02-04T00:00:00.000000Z,
IRIS,C1,LL07,-42.83235,-73.47785,2015-02-03T00:00:00.000000Z,
IRIS,C1,LR05,-40.229975,-72.0044,2016-01-14T00:00:00.000000Z,
IRIS,C1,MG01,-54.9322,-67.63,2013-11-01T00:00:00.000000Z,
IRIS,C1,MG02,-52.7808,-69.2242,2014-12-20T00:00:00.000000Z,
IRIS,C1,MG04,-52.8572,-71.57,2015-02-14T00:00:00.000000Z,
IRIS,C1,ML02,-35.7626,-71.4181,2014-11-07T00:00:00.000000Z,
IRIS,C1,MT02,-33.2591,-71.1377,2014-01-15T00:00:00.000000Z,
IRIS,C1,MT03,-33.4936,-70.5102,2014-04-22T00:00:00.000000Z,
IRIS,C1,MT04,-33.466388,-70.136194,2017-01-26T00:00:00.000000Z,
IRIS,C1,MT05,-33.3919,-70.7381,2014-04-10T00:00:00.000000Z,
IRIS,C1,MT12,-33.73273,-70.54869,2017-01-27T00:00:00.000000Z,
IRIS,C1,MT13,-33.7435,-70.28609,2017-02-03T00:00:00.000000Z,
IRIS,C1,MT14,-33.39573,-70.536232,2017-08-17T00:00:00.000000Z,
IRIS,C1,MT15,-33.599397,-70.506261,2017-10-20T16:28:13.571000Z,
IRIS,C1,TA01,-20.5656,-70.1807,2013-11-21T00:00:00.000000Z,
IRIS,C1,TA02,-20.2705,-70.1311,2014-02-24T00:00:00.000000Z,
IRIS,C1,TA02,-20.270527,-70.131035,,
IRIS,C1,VA01,-33.022813,-71.647523,2013-09-05T00:00:00.000000Z,
IRIS,C1,VA03,-32.7637,-70.5508,2013-11-28T00:00:00.000000Z,
IRIS,C1,VA04,-33.6427,-78.8299,2014-05-27T00:00:00.000000Z,
IRIS,C1,VA05,-33.65711,-71.61428,2014-10-22T00:00:00.000000Z,
IRIS,C1,VA06,-32.56117,-71.29765,2015-09-11T00:00:00.000000Z,
IRIS,CA,ARBS,42.434492,1.533754,2009-10-01T00:00:00.000000Z,
IRIS,CA,CARA,42.707643,0.818132,2011-11-16T00:00:00.000000Z,
IRIS,CA,CAVN,41.881578,0.750608,1999-06-01T00:00:00.000000Z,
IRIS,CA,CBEU,42.255629,2.675797,2007-05-01T00:00:00.000000Z,
IRIS,CA,CBRU,42.284408,2.179001,2000-12-01T00:00:00.000000Z,
IRIS,CA,CBUD,40.7044,0.8263,2016-03-09T00:00:00.000000Z,
IRIS,CA,CCAS,41.882875,2.904141,2005-12-16T00:00:00.000000Z,
IRIS,CA,CFAR,40.5604,0.6614,2016-03-01T00:00:00.000000Z,
IRIS,CA,CFON,41.761185,2.434581,1999-06-01T00:00:00.000000Z,
IRIS,CA,CGAR,41.293309,1.913703,2001-08-01T00:00:00.000000Z,
IRIS,CA,CLLI,42.478105,1.972973,1999-06-01T00:00:00.000000Z,
IRIS,CA,CMAS,40.72568,0.313875,2006-04-01T00:00:00.000000Z,
IRIS,CA,COBS,40.7141,1.3573,2005-08-13T00:00:00.000000Z,
IRIS,CA,CORG,42.229088,1.316531,2001-02-01T00:00:00.000000Z,
IRIS,CA,CORI,41.972401,2.048795,2006-02-01T00:00:00.000000Z,
IRIS,CA,CPAL,42.310533,3.16244,2007-03-01T00:00:00.000000Z,
IRIS,CA,CSOR,42.374429,1.132743,2001-12-01T00:00:00.000000Z,
IRIS,CA,EBR,40.820167,0.49394,2016-11-24T12:00:00.000000Z,
IRIS,CB,CN2,43.48,125.260002,2007-07-01T00:00:00.000000Z,
IRIS,CB,DL2,38.905998,121.627998,2007-07-01T00:00:00.000000Z,
IRIS,CB,GZH,23.6525,113.652496,2007-07-01T00:00:00.000000Z,
IRIS,CB,HEH,50.252998,127.410004,2007-07-01T00:00:00.000000Z,
IRIS,CB,HHC,40.849998,111.564003,2007-07-01T00:00:00.000000Z,
IRIS,CB,LYN,34.549999,112.470001,2007-07-01T00:00:00.000000Z,
IRIS,CB,LZH,36.087002,103.844398,2007-07-01T00:00:00.000000Z,
IRIS,CB,SNY,41.827801,123.578003,2007-07-01T00:00:00.000000Z,
IRIS,CB,TNC,25.028999,98.519997,2000-01-01T00:00:00.000000Z,
IRIS,CB,WHN,30.542801,114.353897,2007-07-01T00:00:00.000000Z,
IRIS,CB,XLT,43.900002,116.079002,2007-07-01T00:00:00.000000Z,
IRIS,CC,ASBU,43.82056,-121.368401,2011-11-16T00:00:00.000000Z,
IRIS,CC,CIHL,43.75097,-121.14862,2011-08-17T00:00:00.000000Z,
IRIS,CC,CLBH,42.907745,-122.143494,2015-08-14T00:00:00.000000Z,
IRIS,CC,CPCO,43.72201,-121.23319,2011-08-10T00:00:00.000000Z,
IRIS,CC,CRBU,43.55964,-121.70979,2015-10-24T00:00:00.000000Z,
IRIS,CC,HUSB,44.119455,-121.849361,2013-08-14T00:00:00.000000Z,
IRIS,CC,JRO,46.27527,-122.21826,2004-10-02T00:00:00.000000Z,
IRIS,CC,KWBU,43.752399,-121.311852,2011-08-18T00:00:00.000000Z,
IRIS,CC,NORM,43.73896,-121.252678,2011-08-24T00:00:00.000000Z,
IRIS,CC,OBSR,46.899719,-121.815331,2008-11-19T00:00:00.000000Z,
IRIS,CC,PALM,45.358574,-121.705536,2014-09-28T00:00:00.000000Z,
IRIS,CC,PANH,46.859032,-121.642592,2007-09-10T00:00:00.000000Z,
IRIS,CC,PR01,46.910103,-122.037586,2016-11-03T00:00:00.000000Z,
IRIS,CC,PR02,46.918303,-122.048695,2016-11-17T00:00:00.000000Z,
IRIS,CC,PR03,46.903433,-122.032691,2016-09-15T00:00:00.000000Z,
IRIS,CC,PR04,46.929773,-121.988592,2017-01-01T00:00:00.000000Z,
IRIS,CC,PR05,46.841723,-121.948863,2017-09-28T00:00:00.000000Z,
IRIS,CC,PRLK,44.20975,-121.96264,2006-09-15T00:00:00.000000Z,
IRIS,CC,SEP,46.19978,-122.190857,2004-11-05T00:00:00.000000Z,
IRIS,CC,SHRK,45.464317,-121.52877,2015-08-04T00:00:00.000000Z,
IRIS,CC,SR41,46.88668,-121.536642,2015-07-09T00:00:00.000000Z,
IRIS,CC,STD,46.23749,-122.22421,2004-10-05T00:00:00.000000Z,
IRIS,CC,SUG,46.215549,-122.176262,2009-08-07T00:00:00.000000Z,
IRIS,CC,SWF2,46.178349,-122.216766,2013-08-29T00:00:00.000000Z,
IRIS,CC,SWFL,46.18867,-122.20203,2006-10-01T00:00:00.000000Z,
IRIS,CC,SWNB,43.67274,-121.35535,2011-08-21T00:00:00.000000Z,
IRIS,CC,TCBU,44.24083,-121.66438,2008-04-22T00:00:00.000000Z,
IRIS,CC,TIMB,45.33572,-121.710358,2006-09-29T00:00:00.000000Z,
IRIS,CC,TMBU,43.60189,-121.14451,2011-08-24T00:00:00.000000Z,
IRIS,CC,VALT,46.214218,-122.189247,2006-09-30T00:00:00.000000Z,
IRIS,CC,WIFE,44.05966,-121.81746,2004-07-28T00:00:00.000000Z,
IRIS,CH,BRANT,46.938011,6.47298,2002-11-06T00:00:00.000000Z,
IRIS,CH,FIESA,46.435268,8.11043,2009-11-12T00:00:00.000000Z,
IRIS,CH,HASLI,46.756809,8.15117,1999-06-16T00:00:00.000000Z,
IRIS,CH,LIENZ,47.294601,9.4927,2004-10-28T14:10:00.000000Z,
IRIS,CH,MUGIO,45.92186,9.04167,2002-02-20T00:00:00.000000Z,
IRIS,CH,SENIN,46.36335,7.2993,2002-02-13T00:00:00.000000Z,
IRIS,CI,ADO,34.550461,-117.433907,2000-08-09T00:00:00.000000Z,
IRIS,CI,AGA,33.638378,-116.4011,1999-11-16T00:00:00.000000Z,
IRIS,CI,ALP,34.68708,-118.299461,1999-10-05T00:00:00.000000Z,
IRIS,CI,ARV,35.1269,-118.83009,1983-09-15T00:00:00.000000Z,
IRIS,CI,AVM,35.06562,-116.61549,2015-05-12T16:50:00.000000Z,
IRIS,CI,BAK,35.34444,-119.104446,1999-06-21T00:00:00.000000Z,
IRIS,CI,BAR,32.68005,-116.67215,1932-09-04T00:00:00.000000Z,
IRIS,CI,BBR,34.2623,-116.92075,2000-06-14T22:00:00.000000Z,
IRIS,CI,BBS,33.921391,-116.980583,2000-09-13T00:00:00.000000Z,
IRIS,CI,BC3,33.65515,-115.45366,1991-05-08T00:00:00.000000Z,
IRIS,CI,BCC,33.575081,-117.261192,2000-07-11T22:45:00.000000Z,
IRIS,CI,BCW,34.94009,-119.41313,2008-04-08T19:00:00.000000Z,
IRIS,CI,BEL,34.0006,-115.9982,2001-03-15T00:00:00.000000Z,
IRIS,CI,BFS,34.23883,-117.65853,2001-07-10T00:00:00.000000Z,
IRIS,CI,BHP,33.99053,-118.36171,2009-05-20T19:45:00.000000Z,
IRIS,CI,BLA,34.069481,-116.388962,2000-04-11T00:00:00.000000Z,
IRIS,CI,BLA2,34.06931,-116.38993,2009-08-05T18:11:00.000000Z,
IRIS,CI,BLC,34.243561,-118.673119,1994-02-01T00:00:00.000000Z,
IRIS,CI,BLY,33.7503,-114.52375,2004-11-08T19:18:00.000000Z,
IRIS,CI,BOM,33.36465,-115.72963,2009-02-10T19:10:00.000000Z,
IRIS,CI,BOR,33.2682,-116.41716,2000-06-14T00:00:00.000000Z,
IRIS,CI,BRE,33.807758,-117.981163,2000-02-25T00:00:00.000000Z,
IRIS,CI,BTC,33.012131,-115.219872,1999-04-02T00:00:00.000000Z,
IRIS,CI,BTP,34.68224,-118.57398,1997-12-03T00:00:00.000000Z,
IRIS,CI,CAR,35.30819,-119.84583,2006-04-07T00:00:00.000000Z,
IRIS,CI,CCA,35.152519,-118.016487,2002-04-04T00:00:00.000000Z,
IRIS,CI,CCC,35.524948,-117.364532,2001-06-22T00:00:00.000000Z,
IRIS,CI,CGO,36.5504,-117.802948,2001-12-11T00:00:00.000000Z,
IRIS,CI,CHF,34.333408,-118.025848,1998-11-03T00:00:00.000000Z,
IRIS,CI,CHN,33.998791,-117.680443,1999-10-12T00:00:00.000000Z,
IRIS,CI,CHR,34.729019,-119.392693,2017-06-21T00:00:00.000000Z,
IRIS,CI,CIA,33.401898,-118.415021,1998-09-10T00:00:00.000000Z,
IRIS,CI,CJM,34.27117,-117.42448,2011-11-17T00:00:00.000000Z,
IRIS,CI,CJV2,34.52978,-118.1445,2013-11-14T00:00:00.000000Z,
IRIS,CI,CKP,33.555069,-114.890404,2016-11-16T00:00:00.000000Z,
IRIS,CI,CLC,35.81574,-117.59751,1948-07-08T00:00:00.000000Z,
IRIS,CI,CLT,34.092838,-117.316872,1999-10-28T00:00:00.000000Z,
IRIS,CI,COA,32.86341,-115.12339,1973-03-31T00:00:00.000000Z,
IRIS,CI,CRG,35.2422,-119.72486,1976-07-21T00:00:00.000000Z,
IRIS,CI,CRR,32.88682,-115.96918,1950-04-09T00:00:00.000000Z,
IRIS,CI,CSH,33.6442,-116.5956,2016-02-01T00:00:00.000000Z,
IRIS,CI,CTC,33.65516,-115.99006,2000-04-27T00:00:00.000000Z,
IRIS,CI,CTW,33.67728,-115.872139,1977-08-31T00:00:00.000000Z,
IRIS,CI,CWC,36.439049,-118.080498,1965-10-15T00:00:00.000000Z,
IRIS,CI,DAN,34.63745,-115.38115,1998-09-22T00:00:00.000000Z,
IRIS,CI,DAW,36.27148,-117.59214,2017-02-27T00:00:00.000000Z,
IRIS,CI,DEC,34.253529,-118.333832,2000-08-10T20:30:00.000000Z,
IRIS,CI,DEV,33.93597,-116.577942,1997-11-11T00:00:00.000000Z,
IRIS,CI,DGR,33.65001,-117.00947,1993-06-22T00:00:00.000000Z,
IRIS,CI,DJJ,34.10618,-118.45505,1998-11-09T00:00:00.000000Z,
IRIS,CI,DLA,33.84822,-118.09624,2000-05-04T23:59:00.000000Z,
IRIS,CI,DNR,33.56667,-116.63056,2001-10-22T00:00:00.000000Z,
IRIS,CI,DPP,32.99889,-116.94187,2000-10-24T00:00:00.000000Z,
IRIS,CI,DRE,32.80532,-115.44679,2002-07-17T00:00:00.000000Z,
IRIS,CI,DSC,35.142551,-116.103951,2002-10-29T00:00:00.000000Z,
IRIS,CI,DTP,35.267422,-117.84581,1981-05-31T00:00:00.000000Z,
IRIS,CI,DVT,32.659149,-116.100609,2001-06-22T00:00:00.000000Z,
IRIS,CI,DZA,32.60657,-116.77477,2016-03-21T00:00:00.000000Z,
IRIS,CI,EDW2,34.8811,-117.993881,2004-05-04T00:00:00.000000Z,
IRIS,CI,ELS2,33.64907,-117.42604,2013-05-21T00:00:00.000000Z,
IRIS,CI,EML,32.89083,-116.84566,2000-10-26T00:00:00.000000Z,
IRIS,CI,ERR,33.11675,-115.82267,2000-01-13T00:00:00.000000Z,
IRIS,CI,ERR,33.11652,-115.82273,2014-03-24T00:00:00.000000Z,
IRIS,CI,FHO,34.09355,-116.93588,2009-08-04T19:20:00.000000Z,
IRIS,CI,FIG,34.72832,-119.98803,2001-02-02T00:00:00.000000Z,
IRIS,CI,FMP,33.712639,-118.293808,2000-08-30T00:00:00.000000Z,
IRIS,CI,FOX2,34.7339,-118.24046,2013-07-15T00:00:00.000000Z,
IRIS,CI,FUR,36.46703,-116.86322,1996-11-19T00:00:00.000000Z,
IRIS,CI,GATR,34.552662,-120.50235,2008-07-02T15:00:00.000000Z,
IRIS,CI,GLA,33.05149,-114.82706,1966-12-19T00:00:00.000000Z,
IRIS,CI,GMA,34.291481,-116.382561,2013-12-04T00:00:00.000000Z,
IRIS,CI,GMR,34.78457,-115.65994,2006-04-04T00:00:00.000000Z,
IRIS,CI,GOR,33.1537,-117.22921,1999-06-29T00:00:00.000000Z,
IRIS,CI,GR2,34.11816,-118.30024,1998-03-30T00:00:00.000000Z,
IRIS,CI,GRA,36.996078,-117.366211,2001-04-18T00:00:00.000000Z,
IRIS,CI,GSC,35.30177,-116.80574,1961-11-07T00:00:00.000000Z,
IRIS,CI,HAR,35.0114,-117.29909,2013-12-04T00:00:00.000000Z,
IRIS,CI,HAY,33.70736,-115.63892,1956-06-20T00:00:00.000000Z,
IRIS,CI,HAY,33.70734,-115.63889,2014-07-17T00:00:00.000000Z,
IRIS,CI,HDH,34.775291,-118.639992,2015-06-15T00:00:00.000000Z,
IRIS,CI,HEC,34.8294,-116.335,1997-08-01T00:00:00.000000Z,
IRIS,CI,HLL,34.17643,-118.35967,2000-03-23T00:00:00.000000Z,
IRIS,CI,HMT2,33.708115,-117.001526,2013-05-21T00:00:00.000000Z,
IRIS,CI,HOL,34.458248,-117.845047,1997-05-15T00:00:00.000000Z,
IRIS,CI,HOL,34.458309,-117.84539,1997-05-15T00:00:00.000000Z,
IRIS,CI,HYS,34.865318,-117.569748,1983-09-15T00:00:00.000000Z,
IRIS,CI,IBP,32.661121,-116.092857,2010-04-06T20:00:00.000000Z,
IRIS,CI,IDO,33.79678,-116.22152,2010-05-04T16:00:00.000000Z,
IRIS,CI,IKP,32.65012,-116.10948,1972-03-29T00:00:00.000000Z,
IRIS,CI,IMP,32.90147,-115.56071,2013-10-29T00:00:00.000000Z,
IRIS,CI,IPT,34.19701,-117.28498,2012-01-04T00:00:00.000000Z,
IRIS,CI,IRM,34.157379,-115.145126,2001-12-05T00:00:00.000000Z,
IRIS,CI,ISA,35.66278,-118.47403,1946-03-16T00:00:00.000000Z,
IRIS,CI,JEM,33.08098,-116.59755,2008-05-01T21:42:40.000000Z,
IRIS,CI,JNH2,34.448941,-117.95541,2013-07-26T00:00:00.000000Z,
IRIS,CI,JRC2,35.98249,-117.80885,2004-01-15T00:00:00.000000Z,
IRIS,CI,JTH,34.126438,-116.037849,2013-11-04T00:00:00.000000Z,
IRIS,CI,JVA,34.36622,-116.61266,2001-04-11T00:00:00.000000Z,
IRIS,CI,KYV,33.92545,-116.1734,2013-11-14T00:00:00.000000Z,
IRIS,CI,LAF,33.86889,-118.33143,1999-10-15T00:00:00.000000Z,
IRIS,CI,LCG,34.00033,-118.37794,1999-10-27T00:00:00.000000Z,
IRIS,CI,LCP,34.73551,-120.27996,2001-11-14T00:00:00.000000Z,
IRIS,CI,LDF,35.13066,-115.18416,1999-11-17T00:00:00.000000Z,
IRIS,CI,LDR,34.9906,-118.34156,2001-10-04T00:00:00.000000Z,
IRIS,CI,LFP,34.30529,-118.48805,2000-01-24T00:00:00.000000Z,
IRIS,CI,LGB,33.9753,-118.14918,2000-04-06T00:00:00.000000Z,
IRIS,CI,LGU,34.108189,-119.065872,1999-06-13T00:00:00.000000Z,
IRIS,CI,LJR,34.807621,-118.867752,2002-11-05T00:00:00.000000Z,
IRIS,CI,LLS,33.684471,-117.943039,2000-02-01T00:00:00.000000Z,
IRIS,CI,LMH,33.74418,-117.39135,2013-05-21T00:00:00.000000Z,
IRIS,CI,LMR2,34.934391,-117.696289,2003-09-25T00:00:00.000000Z,
IRIS,CI,LMS,33.81744,-117.445,2013-05-21T00:00:00.000000Z,
IRIS,CI,LMY,34.733166,-119.103912,2013-12-04T00:00:00.000000Z,
IRIS,CI,LOC,34.690735,-120.446901,2013-12-04T00:00:00.000000Z,
IRIS,CI,LPC,34.31478,-117.54642,2009-05-28T19:00:00.000000Z,
IRIS,CI,LRL,35.47954,-117.68212,1992-07-29T00:00:00.000000Z,
IRIS,CI,LRR2,34.527061,-118.029984,2013-05-13T00:00:00.000000Z,
IRIS,CI,LTP,33.8811,-118.17568,2000-07-25T00:00:00.000000Z,
IRIS,CI,LUC2,34.456379,-116.964233,2012-06-26T00:00:00.000000Z,
IRIS,CI,LUG,34.365601,-117.366829,1998-01-28T00:00:00.000000Z,
IRIS,CI,LUS,33.013748,-117.163048,2017-06-20T00:00:00.000000Z,
IRIS,CI,LYP,32.70333,-116.7548,2016-05-23T00:00:00.000000Z,
IRIS,CI,MCT,34.22645,-116.04073,2001-01-24T00:00:00.000000Z,
IRIS,CI,MGE,33.81841,-116.36874,1999-10-16T00:00:00.000000Z,
IRIS,CI,MLAC,37.630192,-118.836052,1992-11-04T00:00:00.000000Z,
IRIS,CI,MLS,34.004601,-117.561623,1998-03-05T00:00:00.000000Z,
IRIS,CI,MOP,34.28096,-118.904694,1999-09-16T00:00:00.000000Z,
IRIS,CI,MPI,34.81258,-119.1453,2000-11-01T00:00:00.000000Z,
IRIS,CI,MPM,36.05799,-117.48901,1998-06-25T00:00:00.000000Z,
IRIS,CI,MPP,34.88848,-119.81362,2000-10-01T00:00:00.000000Z,
IRIS,CI,MSC,34.03852,-116.64795,2009-04-22T20:30:00.000000Z,
IRIS,CI,MSJ,33.80801,-116.96789,1999-07-27T00:00:00.000000Z,
IRIS,CI,MTG,33.19915,-116.64727,2013-10-29T00:00:00.000000Z,
IRIS,CI,MTP,35.48434,-115.5532,1996-09-10T00:00:00.000000Z,
IRIS,CI,MUR,33.59999,-117.19543,2005-07-25T00:00:00.000000Z,
IRIS,CI,MWC,34.22362,-118.05832,1928-04-23T00:00:00.000000Z,
IRIS,CI,NBS,34.78035,-116.55798,2001-12-19T00:00:00.000000Z,
IRIS,CI,NCH,34.942699,-119.67395,2013-12-04T00:00:00.000000Z,
IRIS,CI,NEE2,34.76759,-114.61881,2006-07-27T00:00:00.000000Z,
IRIS,CI,NJQ,34.534119,-120.177368,2001-11-20T00:00:00.000000Z,
IRIS,CI,NOT,34.22869,-118.55829,1995-10-05T00:00:00.000000Z,
IRIS,CI,NSS2,33.55553,-115.94586,2004-03-17T11:50:00.000000Z,
IRIS,CI,OAT,34.34361,-118.61442,1999-03-11T00:00:00.000000Z,
IRIS,CI,OLI,33.945389,-117.923721,1999-11-23T00:00:00.000000Z,
IRIS,CI,OLP,32.60771,-116.93019,2001-01-10T00:00:00.000000Z,
IRIS,CI,OSI,34.614498,-118.723503,1995-06-28T00:00:00.000000Z,
IRIS,CI,PALA,33.38905,-117.03182,2014-01-09T00:00:00.000000Z,
IRIS,CI,PASC,34.17141,-118.18523,2006-10-05T00:00:00.000000Z,
IRIS,CI,PDE,34.44199,-118.58215,1999-09-23T00:00:00.000000Z,
IRIS,CI,PDM,34.30336,-114.141518,2001-09-20T00:00:00.000000Z,
IRIS,CI,PDR,33.96273,-118.437019,2001-02-02T00:00:00.000000Z,
IRIS,CI,PDU,34.1207,-117.63808,1999-10-16T00:00:00.000000Z,
IRIS,CI,PER,33.86164,-117.20529,2003-05-21T00:00:00.000000Z,
IRIS,CI,PHL,35.40773,-120.54556,1997-07-23T00:00:00.000000Z,
IRIS,CI,PLM,33.353611,-116.862648,1939-09-09T00:00:00.000000Z,
IRIS,CI,PLS,33.7953,-117.609062,1990-05-23T00:00:00.000000Z,
IRIS,CI,PMD,33.64785,-116.37769,2005-05-07T00:45:00.000000Z,
IRIS,CI,POB2,33.68708,-116.92382,2014-03-20T19:00:00.000000Z,
IRIS,CI,PSD,33.823929,-116.550262,2005-04-13T23:13:00.000000Z,
IRIS,CI,PSR,34.091808,-117.807091,2005-09-14T00:00:00.000000Z,
IRIS,CI,QLC,35.04084,-119.97425,2016-05-02T00:00:00.000000Z,
IRIS,CI,RAG,34.68289,-116.15139,1999-07-20T00:00:00.000000Z,
IRIS,CI,RCT,36.305229,-119.243843,1999-10-11T00:00:00.000000Z,
IRIS,CI,RFR,35.113583,-120.097209,2016-05-02T00:00:00.000000Z,
IRIS,CI,RHC2,34.00095,-118.01333,2014-01-14T22:00:00.000000Z,
IRIS,CI,RHR,33.290215,-117.176483,2017-03-16T00:00:00.000000Z,
IRIS,CI,RIN,34.28196,-118.47925,1999-08-19T00:00:00.000000Z,
IRIS,CI,RIO,34.10473,-117.97956,1999-10-19T00:00:00.000000Z,
IRIS,CI,RKMO,33.67421,-117.60947,2013-11-14T00:00:00.000000Z,
IRIS,CI,RPV,33.74346,-118.40412,1993-05-12T00:00:00.000000Z,
IRIS,CI,RRX,34.875332,-116.996841,2000-11-08T00:00:00.000000Z,
IRIS,CI,RSI,34.85191,-120.208679,2017-01-24T00:00:00.000000Z,
IRIS,CI,RSS,33.97327,-117.326736,1999-05-27T00:00:00.000000Z,
IRIS,CI,RUN,32.972221,-114.978088,1973-03-31T00:00:00.000000Z,
IRIS,CI,RUS,34.05075,-118.08078,1998-05-29T00:00:00.000000Z,
IRIS,CI,RVR,33.993511,-117.37545,1926-10-19T00:00:00.000000Z,
IRIS,CI,RXH,33.18313,-115.62257,2004-05-26T17:25:00.000000Z,
IRIS,CI,SAL,33.2801,-115.98585,1999-05-25T00:00:00.000000Z,
IRIS,CI,SBB2,34.68844,-117.82424,2004-10-28T21:15:00.000000Z,
IRIS,CI,SBC,34.440762,-119.71492,1932-01-05T00:00:00.000000Z,
IRIS,CI,SBI,33.480461,-119.029861,2003-07-16T00:00:00.000000Z,
IRIS,CI,SBPX,34.2324,-117.23484,1996-06-12T00:00:00.000000Z,
IRIS,CI,SCI2,32.9799,-118.54697,2003-10-23T00:00:00.000000Z,
IRIS,CI,SCZ2,33.99543,-119.635101,2003-11-04T00:00:00.000000Z,
IRIS,CI,SDD,33.552589,-117.661713,1999-04-20T00:00:00.000000Z,
IRIS,CI,SDG,32.784,-117.13805,2001-09-26T00:00:00.000000Z,
IRIS,CI,SDR,32.735611,-116.942413,2001-04-20T00:00:00.000000Z,
IRIS,CI,SES,34.43692,-119.1375,2001-01-25T00:00:00.000000Z,
IRIS,CI,SGL,32.64933,-115.72638,1973-03-31T00:00:00.000000Z,
IRIS,CI,SHO,35.899529,-116.275299,1996-10-14T00:00:00.000000Z,
IRIS,CI,SIO,34.292999,-119.164597,1995-10-05T00:00:00.000000Z,
IRIS,CI,SLA,35.89095,-117.28332,1999-03-09T00:00:00.000000Z,
IRIS,CI,SLB,33.48519,-115.86643,2009-02-06T17:55:00.000000Z,
IRIS,CI,SLH,33.19269,-116.25399,2013-03-25T00:00:00.000000Z,
IRIS,CI,SLR,33.833591,-116.797371,2001-11-30T00:00:00.000000Z,
IRIS,CI,SMF2,34.02201,-118.44627,2012-07-05T00:00:00.000000Z,
IRIS,CI,SMI,34.03818,-120.35132,2010-07-01T00:00:00.000000Z,
IRIS,CI,SMM,35.3142,-119.99581,1999-11-09T00:00:00.000000Z,
IRIS,CI,SMR,35.376991,-120.612473,2008-05-22T21:00:00.000000Z,
IRIS,CI,SMS,34.014381,-118.456169,1997-06-18T00:00:00.000000Z,
IRIS,CI,SMW,35.01108,-120.40997,2008-12-09T22:49:00.000000Z,
IRIS,CI,SNCC,33.247871,-119.524368,1994-05-03T00:00:00.000000Z,
IRIS,CI,SNO,34.035149,-116.807777,2008-12-03T20:32:00.000000Z,
IRIS,CI,SNR,32.861839,-115.43602,1973-05-01T00:00:00.000000Z,
IRIS,CI,SOC,33.38761,-117.58013,2015-06-29T00:00:00.000000Z,
IRIS,CI,SOF,33.37055,-117.5574,2012-09-25T00:00:00.000000Z,
IRIS,CI,SPF,34.05933,-118.646141,2000-10-19T00:00:00.000000Z,
IRIS,CI,SPG2,36.200569,-118.766243,2005-12-06T00:00:00.000000Z,
IRIS,CI,SRI,33.97875,-120.07886,2010-09-01T00:00:00.000000Z,
IRIS,CI,SRN,33.82854,-117.78938,1999-11-15T00:00:00.000000Z,
IRIS,CI,SRT,35.692348,-117.750511,1982-07-31T00:00:00.000000Z,
IRIS,CI,STC,34.30302,-119.18676,1999-11-15T00:00:00.000000Z,
IRIS,CI,STG,33.664001,-117.768562,2000-01-24T00:00:00.000000Z,
IRIS,CI,STS,33.790329,-118.198776,1999-05-20T00:00:00.000000Z,
IRIS,CI,SVD,34.10647,-117.09822,1990-12-04T00:00:00.000000Z,
IRIS,CI,SWP,32.79184,-116.09718,2013-10-29T00:00:00.000000Z,
IRIS,CI,SWS,32.94508,-115.79988,1997-09-20T00:00:00.000000Z,
IRIS,CI,SYN,34.607231,-120.069603,2013-12-04T00:00:00.000000Z,
IRIS,CI,SYP,34.52781,-119.97832,1967-06-07T00:00:00.000000Z,
IRIS,CI,TA2,34.38203,-117.678223,1997-02-06T00:00:00.000000Z,
IRIS,CI,TEH,35.2913,-118.42079,2001-05-02T00:00:00.000000Z,
IRIS,CI,TFT,35.14592,-119.41946,2001-10-30T00:00:00.000000Z,
IRIS,CI,THM,33.65066,-116.07734,2009-03-10T20:48:00.000000Z,
IRIS,CI,TIN,37.054218,-118.230087,1932-01-01T00:00:00.000000Z,
IRIS,CI,TOR,33.57526,-116.22584,2007-04-30T00:00:00.000000Z,
IRIS,CI,TOW2,35.808559,-117.764877,2014-07-10T00:00:00.000000Z,
IRIS,CI,TPO,34.87883,-118.22864,1976-05-10T00:00:00.000000Z,
IRIS,CI,TUQ,35.43584,-115.92389,2002-05-02T00:00:00.000000Z,
IRIS,CI,USC,34.019192,-118.286308,1993-02-17T00:00:00.000000Z,
IRIS,CI,VCS,34.48372,-118.11781,1997-09-09T00:00:00.000000Z,
IRIS,CI,VES,35.840889,-119.084686,1999-09-30T00:00:00.000000Z,
IRIS,CI,VOG,36.32098,-119.382263,2011-05-26T00:00:00.000000Z,
IRIS,CI,VTV,34.56065,-117.329597,1993-04-14T00:00:00.000000Z,
IRIS,CI,WAS2,35.7377,-118.55743,2014-06-03T00:00:00.000000Z,
IRIS,CI,WBM,35.608391,-117.890488,1979-09-26T00:00:00.000000Z,
IRIS,CI,WBS,35.53664,-118.14035,1980-04-22T00:00:00.000000Z,
IRIS,CI,WCS2,36.025211,-117.765259,2014-07-14T00:00:00.000000Z,
IRIS,CI,WES,32.75904,-115.73161,2001-01-23T00:00:00.000000Z,
IRIS,CI,WGR,34.510849,-119.274071,2001-08-01T00:00:00.000000Z,
IRIS,CI,WHF,35.695129,-118.35183,1979-05-23T00:00:00.000000Z,
IRIS,CI,WLH2,36.152072,-118.313186,2014-06-04T00:00:00.000000Z,
IRIS,CI,WLT,34.00948,-117.95077,1999-11-15T00:00:00.000000Z,
IRIS,CI,WMD,33.03826,-115.58191,2013-05-08T00:00:00.000000Z,
IRIS,CI,WMF,36.117741,-117.854843,1982-03-20T00:00:00.000000Z,
IRIS,CI,WMF,36.11758,-117.854858,1982-03-20T00:00:00.000000Z,
IRIS,CI,WOR,35.69563,-118.24246,1979-05-23T00:00:00.000000Z,
IRIS,CI,WRC2,35.947899,-117.650383,2014-07-09T00:00:00.000000Z,
IRIS,CI,WSS,34.1717,-118.64971,2000-11-21T00:00:00.000000Z,
IRIS,CI,WTT,33.948689,-118.25547,2000-02-15T23:59:00.000000Z,
IRIS,CI,WTT2,33.94867,-118.25539,2011-01-05T00:00:00.000000Z,
IRIS,CI,WWC,33.94068,-116.40876,2009-04-01T20:00:00.000000Z,
IRIS,CI,WWF,33.27884,-115.57888,2014-02-10T00:00:00.000000Z,
IRIS,CI,YEG2,35.43831,-119.96306,2016-04-25T00:00:00.000000Z,
IRIS,CM,PRV,13.376167,-81.3635,2012-05-15T00:00:00.000000Z,
IRIS,CN,A11,47.2431,-70.1969,1994-10-16T00:00:00.000000Z,
IRIS,CN,A16,47.468,-70.0096,1994-10-15T00:00:00.000000Z,
IRIS,CN,A21,47.7045,-69.6892,1994-10-17T00:00:00.000000Z,
IRIS,CN,A54,47.4568,-70.4134,1994-10-20T00:00:00.000000Z,
IRIS,CN,A61,47.6936,-70.0914,1994-10-19T00:00:00.000000Z,
IRIS,CN,A64,47.8274,-69.8914,1994-10-19T00:00:00.000000Z,
IRIS,CN,ATKO,48.8231,-91.6004,2004-06-09T00:00:00.000000Z,
IRIS,CN,BAIB,52.5757,-131.7534,2017-08-10T00:00:00.000000Z,
IRIS,CN,BBB,52.1847,-128.1133,1993-10-29T00:00:00.000000Z,
IRIS,CN,BCLQ,46.9264,-71.1727,2007-11-02T00:00:00.000000Z,
IRIS,CN,BFSB,48.8336,-125.136,2013-11-15T00:00:00.000000Z,
IRIS,CN,BJBQ,50.2874,-62.8094,2017-09-23T00:00:00.000000Z,
IRIS,CN,BLKN,64.3185,-96.0024,2017-08-13T00:00:00.000000Z,
IRIS,CN,BMTB,56.0451,-122.1332,2017-09-18T00:00:00.000000Z,
IRIS,CN,BNAB,53.4932,-130.6368,1999-04-16T00:00:00.000000Z,
IRIS,CN,BVCY,62.4141,-140.8606,2010-08-14T00:00:00.000000Z,
IRIS,CN,CHEG,46.8083,-60.6745,2005-10-19T00:00:00.000000Z,
IRIS,CN,DAWY,64.0647,-139.3937,1993-07-01T00:00:00.000000Z,
IRIS,CN,DIB,53.2025,-132.4767,2004-03-15T00:00:00.000000Z,
IRIS,CN,DPQ,46.6803,-72.7771,1996-09-20T00:00:00.000000Z,
IRIS,CN,DRLN,49.2562,-57.5032,1993-12-14T00:00:00.000000Z,
IRIS,CN,EDM,53.223,-113.3497,1992-06-03T00:00:00.000000Z,
IRIS,CN,EFO,43.0925,-79.3099,1995-02-28T00:00:00.000000Z,
IRIS,CN,EPLO,49.6737,-93.7258,2004-06-11T00:00:00.000000Z,
IRIS,CN,FNSB,58.8061,-122.7328,2017-08-02T00:00:00.000000Z,
IRIS,CN,FRB,63.7469,-68.5451,1992-06-03T00:00:00.000000Z,
IRIS,CN,GAC,45.7032,-75.4776,1992-04-14T00:00:00.000000Z,
IRIS,CN,GBN,45.4079,-61.5128,2005-10-17T00:00:00.000000Z,
IRIS,CN,GGN,45.1184,-66.842,2002-01-30T00:00:00.000000Z,
IRIS,CN,GOBB,48.9493,-123.5105,1999-02-02T00:00:00.000000Z,
IRIS,CN,GTOO,49.7451,-86.9613,2017-06-11T00:00:00.000000Z,
IRIS,CN,HAL,44.6378,-63.5912,2003-01-13T00:00:00.000000Z,
IRIS,CN,HG1B,52.9345,-132.1307,2012-11-07T00:00:00.000000Z,
IRIS,CN,HOLB,50.6402,-128.1331,1995-02-09T00:00:00.000000Z,
IRIS,CN,HOPB,49.3872,-121.4206,2001-11-23T00:00:00.000000Z,
IRIS,CN,HSNB,47.2769,-66.0601,2017-09-26T00:00:00.000000Z,
IRIS,CN,HYT,60.8267,-137.5072,1994-09-15T00:00:00.000000Z,
IRIS,CN,ICQ,49.5223,-67.2715,1996-02-15T00:00:00.000000Z,
IRIS,CN,ILON,69.3712,-81.8243,2005-08-24T00:00:00.000000Z,
IRIS,CN,INK,68.3065,-133.5254,1992-02-28T00:00:00.000000Z,
IRIS,CN,KGNO,44.2272,-76.4934,1999-12-21T00:00:00.000000Z,
IRIS,CN,KILO,48.4972,-79.7232,2003-06-22T00:00:00.000000Z,
IRIS,CN,KIPQ,46.7919,-79.0567,2017-06-04T00:00:00.000000Z,
IRIS,CN,LGNH,18.511,-72.6058,2010-02-14T00:00:00.000000Z,
IRIS,CN,LLLB,50.609,-121.8815,1998-11-17T00:00:00.000000Z,
IRIS,CN,LMN,45.8544,-64.8063,1993-07-26T00:00:00.000000Z,
IRIS,CN,LMQ,47.5485,-70.3258,1992-06-03T00:00:00.000000Z,
IRIS,CN,MALO,50.0244,-79.7635,2003-06-20T00:00:00.000000Z,
IRIS,CN,MCNB,45.5958,-67.3198,2016-05-21T00:00:00.000000Z,
IRIS,CN,MNTQ,45.5003,-73.6228,2010-07-26T00:00:00.000000Z,
IRIS,CN,NATG,50.2872,-62.8102,2005-11-26T00:00:00.000000Z,
IRIS,CN,NLLB,49.2271,-123.9882,2003-01-01T00:00:00.000000Z,
IRIS,CN,ORIO,45.4515,-75.511,2008-06-19T00:00:00.000000Z,
IRIS,CN,OTT,45.3939,-75.7148,1992-06-01T00:00:00.000000Z,
IRIS,CN,OZB,48.9612,-125.4978,1996-03-28T00:00:00.000000Z,
IRIS,CN,PAPH,18.5225,-72.2993,2010-02-11T00:00:00.000000Z,
IRIS,CN,PGC,48.6498,-123.4521,1993-07-01T00:00:00.000000Z,
IRIS,CN,PKLO,51.4987,-90.3522,2004-06-15T00:00:00.000000Z,
IRIS,CN,PLBC,59.455,-136.3659,2005-09-03T00:00:00.000000Z,
IRIS,CN,PNPO,48.5957,-86.2846,2004-06-18T00:00:00.000000Z,
IRIS,CN,PNT,49.3224,-119.6254,1993-02-03T00:00:00.000000Z,
IRIS,CN,RES,74.6892,-94.8962,1992-05-05T00:00:00.000000Z,
IRIS,CN,RUBB,54.3262,-130.2523,2001-07-18T00:00:00.000000Z,
IRIS,CN,SADO,44.7695,-79.1411,1993-12-03T00:00:00.000000Z,
IRIS,CN,SAKN,56.5359,-79.2324,2014-11-25T00:00:00.000000Z,
IRIS,CN,SLEB,51.1685,-118.1326,1997-12-05T00:00:00.000000Z,
IRIS,CN,SNB,48.7751,-123.1723,1996-09-04T00:00:00.000000Z,
IRIS,CN,TBO,48.6472,-89.4085,1993-10-05T00:00:00.000000Z,
IRIS,CN,TRQ,46.2175,-74.5514,1996-07-12T00:00:00.000000Z,
IRIS,CN,TRQ,46.2176,-74.5513,2015-09-02T00:00:00.000000Z,
IRIS,CN,UBRB,52.8918,-124.0832,2007-10-16T00:00:00.000000Z,
IRIS,CN,ULM,50.2503,-95.875,1994-12-07T00:00:00.000000Z,
IRIS,CN,VABQ,45.9047,-75.6079,2010-11-29T00:00:00.000000Z,
IRIS,CN,VGZ,48.4131,-123.3251,1994-07-21T00:00:00.000000Z,
IRIS,CN,VIB,53.2522,-132.5406,1996-07-04T00:00:00.000000Z,
IRIS,CN,VIMO,52.8173,-83.7449,2003-06-11T00:00:00.000000Z,
IRIS,CN,VLDQ,48.1901,-77.7572,2002-01-07T00:00:00.000000Z,
IRIS,CN,WALA,49.0595,-113.9112,1992-06-03T00:00:00.000000Z,
IRIS,CN,WBO,45.0012,-75.2753,1993-12-16T00:00:00.000000Z,
IRIS,CN,WHY,60.6597,-134.8825,1994-10-03T00:00:00.000000Z,
IRIS,CN,WOSB,50.1608,-126.5704,1998-11-17T00:00:00.000000Z,
IRIS,CN,YKAW1,62.4822,-114.4842,2013-07-15T00:00:00.000000Z,
IRIS,CN,YKAW3,62.5616,-114.6099,2013-07-15T00:00:00.000000Z,
IRIS,CN,YUK4,61.4348,-138.5463,2010-08-29T00:00:00.000000Z,
IRIS,CN,YUK5,61.1315,-137.8593,2010-08-23T00:00:00.000000Z,
IRIS,CN,YUK8,61.2844,-139.7646,2012-09-07T00:00:00.000000Z,
IRIS,CO,BIRD,34.645,-80.4615,2010-08-25T00:00:00.000000Z,
IRIS,CO,CASEE,34.993,-82.9317,2009-12-07T00:00:00.000000Z,
IRIS,CO,CSB,32.98698,-80.071545,2009-04-13T00:00:00.000000Z,
IRIS,CO,HAW,33.3612,-81.6097,2010-03-11T00:00:00.000000Z,
IRIS,CO,HODGE,34.2315,-82.2586,2010-03-25T00:00:00.000000Z,
IRIS,CO,JSC,34.2818,-81.25966,2009-04-13T00:00:00.000000Z,
IRIS,CO,PAULI,34.82097,-81.8144,2011-04-26T00:00:00.000000Z,
IRIS,CO,RGR,32.907482,-80.193968,2009-04-13T00:00:00.000000Z,
IRIS,CU,ANWB,17.66853,-61.78557,2007-09-07T00:00:00.000000Z,
IRIS,CU,BBGH,13.1434,-59.5588,2006-09-06T18:12:00.000000Z,
IRIS,CU,BCIP,9.1665,-79.8373,2006-12-02T15:44:00.000000Z,
IRIS,CU,GRGR,12.1324,-61.654,2006-12-12T11:41:00.000000Z,
IRIS,CU,SDDR,18.9821,-71.2878,2006-08-30T00:00:00.000000Z,
IRIS,CU,TGUH,14.057,-87.273,2006-09-20T22:59:00.000000Z,
IRIS,CW,CAMR,23.061737,-81.370857,2016-02-01T00:00:00.000000Z,
IRIS,CW,CHIV,19.97648,-76.415131,2015-11-04T00:00:00.000000Z,
IRIS,CW,MARV,20.005285,-75.906555,2016-09-13T00:00:00.000000Z,
IRIS,CW,MASC,20.175501,-74.231201,1998-01-01T00:00:00.000000Z,
IRIS,CW,PILO,19.91395,-77.408806,2016-01-29T00:00:00.000000Z,
IRIS,CZ,DPC,50.3502,16.3222,1992-12-07T00:00:00.000000Z,
IRIS,CZ,KHC,49.130901,13.5782,1973-01-01T00:00:00.000000Z,
IRIS,CZ,MORC,49.776798,17.5425,1993-09-27T00:00:00.000000Z,
IRIS,CZ,OKC,49.837502,18.1472,1998-11-01T00:00:00.000000Z,
IRIS,CZ,VRAC,49.308399,16.5933,1993-06-01T00:00:00.000000Z,
IRIS,DK,ANGG,65.616302,-37.6371,2010-08-02T00:00:00.000000Z,
IRIS,DK,BSD,0.0,0.0,2004-12-04T00:00:00.000000Z,
IRIS,DK,DBG,74.307098,-20.219299,2010-08-11T00:00:00.000000Z,
IRIS,DK,ICESG,69.092201,-39.6474,2011-06-05T00:00:00.000000Z,
IRIS,DK,ILULI,69.212143,-51.104801,2009-07-14T00:00:00.000000Z,
IRIS,DK,ISOG,65.547997,-38.9757,2012-09-06T00:00:00.000000Z,
IRIS,DK,MUD,56.455002,9.1733,2004-12-04T00:00:00.000000Z,
IRIS,DK,NEEM,77.444702,-51.073799,2011-07-16T00:00:00.000000Z,
IRIS,DK,NRS,61.159531,-45.418751,2009-01-29T00:00:00.000000Z,
IRIS,DK,NUUG,71.5384,-53.1996,2010-07-21T00:00:00.000000Z,
IRIS,DK,NUUK,64.1838,-51.6679,2010-07-26T00:00:00.000000Z,
IRIS,DK,SCO,70.485603,-21.949699,2009-09-22T23:00:00.000000Z,
IRIS,DK,TULEG,76.537399,-68.8237,2010-05-04T00:00:00.000000Z,
IRIS,EC,ANTS,-0.4973,-78.170403,2011-10-15T00:00:00.000000Z,
IRIS,EC,ARNL,-3.5478,-80.067001,2012-08-14T00:00:00.000000Z,
IRIS,EC,BOSC,-3.1512,-78.495102,2012-11-22T00:00:00.000000Z,
IRIS,EC,CHSH,-1.49385,-78.869331,2012-09-20T00:00:00.000000Z,
IRIS,EC,COHC,-2.4661,-79.257401,2012-05-02T00:00:00.000000Z,
IRIS,EC,GGPC,-0.1804,-78.593697,2012-06-11T00:00:00.000000Z,
IRIS,EC,IMBA,0.2764,-78.199097,2011-10-05T00:00:00.000000Z,
IRIS,EC,MCRA,-4.3697,-79.954399,2012-08-22T00:00:00.000000Z,
IRIS,EC,PULU,0.0218,-78.502197,2011-08-24T00:00:00.000000Z,
IRIS,EC,PUYO,-1.493,-78.024902,2012-06-29T23:00:00.000000Z,
IRIS,EC,SAGO,-1.1529,-78.665001,2012-09-27T00:00:00.000000Z,
IRIS,EC,SALI,-2.1863,-80.991203,2012-05-16T00:00:00.000000Z,
IRIS,EC,SLOR,-0.729811,-78.496742,2015-06-16T00:00:00.000000Z,
IRIS,EC,TULM,0.7161,-77.786903,2012-08-09T00:00:00.000000Z,
IRIS,EC,VCES,-0.79991,-78.39444,2012-08-21T00:00:00.000000Z,
IRIS,EC,ZUMB,-4.8637,-79.143898,2012-11-08T00:00:00.000000Z,
IRIS,EI,IGLA,53.419498,-9.375,2011-01-01T00:00:00.000000Z,
IRIS,EI,IWEX,52.374298,-6.774499,2011-01-01T00:00:00.000000Z,
IRIS,EI,VAL,51.9394,-10.2442,2008-01-01T00:00:00.000000Z,
IRIS,EP,KIDD,31.771774,-106.506378,2009-10-08T00:00:00.000000Z,
IRIS,ET,ASTN,36.327,-83.476,2001-05-10T00:00:00.000000Z,
IRIS,ET,BCRT,35.766,-84.576,1998-06-17T00:00:00.000000Z,
IRIS,ET,BHT,35.863,-84.94,1998-06-17T00:00:00.000000Z,
IRIS,ET,CCNC,36.023,-82.714,2007-07-10T00:00:00.000000Z,
IRIS,ET,CCRT,35.466,-84.053,2005-06-13T00:00:00.000000Z,
IRIS,ET,CMGA,34.629,-85.034,2002-08-23T00:00:00.000000Z,
IRIS,ET,CPCT,35.45,-84.522,2003-03-24T00:00:00.000000Z,
IRIS,ET,CPRT,36.1567,-83.8807,2001-05-10T00:00:00.000000Z,
IRIS,ET,DSNC,35.583056,-81.636111,2015-11-19T22:00:00.000000Z,
IRIS,ET,DYTN,35.491,-85.092,1998-01-01T00:00:00.000000Z,
IRIS,ET,ETT,35.326,-84.455,2000-03-20T00:00:00.000000Z,
IRIS,ET,FPAL,34.54,-85.611,2009-08-05T00:00:00.000000Z,
IRIS,ET,GFM,36.111,-81.807,1982-04-30T00:00:00.000000Z,
IRIS,ET,GMG,34.863,-84.67,1998-06-17T00:00:00.000000Z,
IRIS,ET,GRBT,35.674,-84.197,2000-02-22T00:00:00.000000Z,
IRIS,ET,GTTN,35.812,-83.667,2001-05-10T00:00:00.000000Z,
IRIS,ET,LRVA,36.788,-82.786,2008-04-30T00:00:00.000000Z,
IRIS,ET,MGNC,35.737,-82.286,2006-05-20T00:00:00.000000Z,
IRIS,ET,RCGA,34.976,-85.348,1998-06-17T00:00:00.000000Z,
IRIS,ET,SWET,35.216,-85.932,2000-05-15T00:00:00.000000Z,
IRIS,ET,TRYN,35.267,-82.246,2000-03-04T00:00:00.000000Z,
IRIS,ET,TVNC2,36.03301,-81.212778,2016-04-01T00:00:00.000000Z,
IRIS,ET,VHTN,36.399,-82.802,2007-05-17T00:00:00.000000Z,
IRIS,ET,WMTN,36.41,-84.176,2001-05-10T00:00:00.000000Z,
IRIS,ET,WSNC,35.173,-83.581,2008-11-03T00:00:00.000000Z,
IRIS,G,AIS,-37.79635,77.569186,1993-12-25T00:00:00.000000Z,
IRIS,G,ATD,11.530725,42.846634,1993-07-07T00:00:00.000000Z,
IRIS,G,CAN,-35.318715,148.996325,1987-11-27T00:00:00.000000Z,
IRIS,G,CCD,-75.1065,123.305,2007-01-01T00:00:00.000000Z,
IRIS,G,CLF,48.02579,2.26,2008-07-10T00:00:00.000000Z,
IRIS,G,COYC,-45.57299,-72.08139,2004-12-17T00:00:00.000000Z,
IRIS,G,CRZF,-46.43096,51.855308,1986-02-01T00:00:00.000000Z,
IRIS,G,DRV,-66.664909,140.002075,1986-02-01T00:00:00.000000Z,
IRIS,G,DZM,-22.07164,166.44377,2003-09-01T00:00:00.000000Z,
IRIS,G,FDF,14.734971,-61.146311,1998-11-25T00:00:00.000000Z,
IRIS,G,FOMA,-24.97565,46.978877,2008-09-01T00:00:00.000000Z,
IRIS,G,HDC,10.00201,-84.11142,1997-03-08T00:00:00.000000Z,
IRIS,G,KIP,21.42,-158.0112,1986-04-17T00:00:00.000000Z,
IRIS,G,MBO,14.392024,-16.955467,1985-09-01T00:00:00.000000Z,
IRIS,G,MPG,5.11011,-52.644483,2000-07-03T00:00:00.000000Z,
IRIS,G,NOUC,-22.09863,166.30665,1988-03-21T00:00:00.000000Z,
IRIS,G,PEL,-33.143607,-70.67494,1995-10-04T00:00:00.000000Z,
IRIS,G,PPTF,-17.5896,-149.565247,2009-04-25T00:00:00.000000Z,
IRIS,G,RER,-21.1712,55.73986,1986-02-10T00:00:00.000000Z,
IRIS,G,ROCAM,-19.75553,63.37014,2012-12-15T00:00:00.000000Z,
IRIS,G,TAOE,-8.85492,-140.14775,2004-11-01T20:00:00.000000Z,
IRIS,G,TRIS,-37.0681,-12.3152,2004-03-03T00:00:00.000000Z,
IRIS,G,UNM,19.329662,-99.178065,1990-06-06T00:00:00.000000Z,
IRIS,G,WUS,41.200716,79.216498,1988-10-31T00:00:00.000000Z,
IRIS,GB,BIGH,58.4935,-3.9087,2009-12-15T00:00:00.000000Z,
IRIS,GB,CCA1,50.186699,-5.227299,2008-04-30T00:00:00.000000Z,
IRIS,GB,CLGH,55.082802,-6.110599,2012-02-10T00:00:00.000000Z,
IRIS,GB,CWF,52.738499,-1.30767,2004-03-01T00:00:00.000000Z,
IRIS,GB,DRUM,56.912498,-2.4864,2009-04-22T00:00:00.000000Z,
IRIS,GB,DYA,50.435329,-3.931,2007-01-17T00:00:00.000000Z,
IRIS,GB,EDMD,54.8312,-1.9636,2011-10-01T00:00:00.000000Z,
IRIS,GB,ELSH,51.147598,1.1366,2008-06-21T00:00:00.000000Z,
IRIS,GB,ESK,55.316502,-3.2052,2007-09-28T00:00:00.000000Z,
IRIS,GB,FOEL,52.887901,-3.2012,2008-10-29T00:00:00.000000Z,
IRIS,GB,GAL1,54.866329,-4.71133,2006-08-24T00:00:00.000000Z,
IRIS,GB,HMNX,50.867298,0.3363,2009-05-28T00:00:00.000000Z,
IRIS,GB,HPK,53.958172,-1.624168,2007-02-14T00:00:00.000000Z,
IRIS,GB,HTL,50.994339,-4.484829,2003-07-16T00:00:00.000000Z,
IRIS,GB,INVG,56.42733,-4.04383,2010-11-18T00:00:00.000000Z,
IRIS,GB,IOMK,54.260502,-4.5662,2012-02-10T00:00:00.000000Z,
IRIS,GB,JSA,49.187801,-2.171698,2007-09-06T00:00:00.000000Z,
IRIS,GB,KESW,54.588501,-3.1034,2008-09-02T00:00:00.000000Z,
IRIS,GB,KPL,57.339169,-5.652669,2006-04-01T00:00:00.000000Z,
IRIS,GB,LMK,53.457298,-0.3274,2009-07-19T00:00:00.000000Z,
IRIS,GB,LRW,60.136002,-1.177829,2003-07-16T00:00:00.000000Z,
IRIS,GB,MCH1,51.99733,-2.99833,2004-09-14T00:00:00.000000Z,
IRIS,GB,SOFL,62.068501,-6.965798,2007-09-17T00:00:00.000000Z,
IRIS,GB,STNC,53.091301,-2.206198,2007-04-25T00:00:00.000000Z,
IRIS,GB,SWN1,51.513168,-1.800329,2006-03-23T00:00:00.000000Z,
IRIS,GB,WLF1,53.289398,-4.3966,2009-12-15T00:00:00.000000Z,
IRIS,GE,APE,37.068901,25.5306,2000-07-18T00:00:00.000000Z,
IRIS,GE,BOAB,12.4493,-85.665901,1999-11-11T00:00:00.000000Z,
IRIS,GE,CART,37.5868,-1.0012,1997-12-11T00:00:00.000000Z,
IRIS,GE,CISI,-7.5557,107.8153,2008-07-21T00:00:00.000000Z,
IRIS,GE,CSS,34.961102,33.331001,1998-12-09T00:00:00.000000Z,
IRIS,GE,EIL,29.669901,34.951199,1996-07-18T00:00:00.000000Z,
IRIS,GE,IBBN,52.306301,7.7592,1999-07-12T00:00:00.000000Z,
IRIS,GE,JAGI,-8.4702,114.1521,2008-07-21T00:00:00.000000Z,
IRIS,GE,KBS,78.925598,11.9417,1994-11-05T00:00:00.000000Z,
IRIS,GE,LVC,-22.6182,-68.911301,1996-12-02T00:00:00.000000Z,
IRIS,GE,MLR,45.491199,25.945601,1994-09-09T00:00:00.000000Z,
IRIS,GE,MTE,40.3997,-7.5442,1997-10-07T00:00:00.000000Z,
IRIS,GE,SANT,36.370998,25.459,1996-07-18T00:00:00.000000Z,
IRIS,GE,SLIT,57.6287,22.290501,2006-10-25T00:00:00.000000Z,
IRIS,GE,SOEI,-9.7553,124.267197,2006-12-13T00:00:00.000000Z,
IRIS,GE,TIRR,44.458099,28.4128,2003-10-13T00:00:00.000000Z,
IRIS,GE,UGM,-7.9125,110.523102,1995-08-23T00:00:00.000000Z,
IRIS,GE,VSU,58.462002,26.734699,2003-04-26T00:00:00.000000Z,
IRIS,GE,WLF,49.6646,6.1526,1994-03-15T00:00:00.000000Z,
IRIS,GI,CHIE,14.559928,-89.341362,2013-01-01T00:00:00.000000Z,
IRIS,GI,GUNB,14.595731,-90.345306,2014-01-01T00:00:00.000000Z,
IRIS,GI,HUEH,15.318176,-91.502541,2013-01-01T00:00:00.000000Z,
IRIS,GI,IZAB,15.73,-88.584328,2013-01-01T00:00:00.000000Z,
IRIS,GI,PETF,16.916298,-89.866737,2013-01-01T00:00:00.000000Z,
IRIS,GI,RETA,14.524621,-91.694939,2013-01-01T00:00:00.000000Z,
IRIS,GM,AA01,39.494368,-121.320827,2017-03-01T18:30:00.000000Z,
IRIS,GM,AA12,39.53523,-121.4669,2017-04-20T17:00:00.000000Z,
IRIS,GM,AC07,37.428138,-122.175692,2017-10-05T22:00:00.000000Z,
IRIS,GO,AKH,41.41,43.492901,,
IRIS,GO,BATM,41.604,41.6936,,
IRIS,GO,BGD,41.2645,43.598598,,
IRIS,GO,CHVG,42.71833,42.08411,,
IRIS,GO,DDFL,41.445801,46.118301,,
IRIS,GO,DGRG,41.450722,45.373169,,
IRIS,GO,GUDG,42.4646,44.4772,,
IRIS,GO,LGD,41.834301,46.242199,,
IRIS,GO,ONI,42.5905,43.452499,,
IRIS,GO,SEAG,41.763599,44.8036,,
IRIS,GO,TBLG,41.730919,44.73819,2010-01-01T00:00:00.000000Z,
IRIS,GO,TRLG,41.5392,44.101799,2012-08-18T11:00:00.000000Z,
IRIS,GR,GRA1,49.691887,11.22172,1990-01-01T00:00:00.000000Z,
IRIS,GS,ASL8,34.94532,-106.45657,2017-03-07T00:00:00.000000Z,
IRIS,GS,CVRD,38.0686,-77.808098,2011-08-20T00:00:00.000000Z,
IRIS,GS,ID05,42.64295,-111.45899,2017-09-07T19:05:00.000000Z,
IRIS,GS,ID06,42.58525,-111.45179,2017-09-08T00:00:00.000000Z,
IRIS,GS,ID07,42.53489,-112.07972,2017-09-08T21:40:00.000000Z,
IRIS,GS,ID08,42.896,-111.83889,2017-09-09T00:00:00.000000Z,
IRIS,GS,ID09,42.24443,-111.19358,2017-09-09T18:00:00.000000Z,
IRIS,GS,ID10,42.5186,-110.8919,2017-09-12T23:00:00.000000Z,
IRIS,GS,KAN01,37.15342,-97.75897,2014-08-19T17:00:00.000000Z,
IRIS,GS,KAN05,37.10865,-97.87228,2014-08-22T20:00:00.000000Z,
IRIS,GS,KAN06,37.248,-97.8586,2014-08-22T15:00:00.000000Z,
IRIS,GS,KAN08,37.22672,-97.970947,2014-08-21T16:00:00.000000Z,
IRIS,GS,KAN09,37.13613,-97.61832,2014-08-21T23:00:00.000000Z,
IRIS,GS,KAN10,37.1235,-98.095133,2014-05-07T20:50:47.000000Z,
IRIS,GS,KAN11,37.205967,-97.9133,2014-05-07T16:03:09.000000Z,
IRIS,GS,KAN12,37.297383,-97.998,2014-05-08T17:11:06.000000Z,
IRIS,GS,KAN13,37.012881,-97.477803,2014-05-09T15:57:50.000000Z,
IRIS,GS,KAN14,36.95682,-97.96302,2014-08-20T21:00:00.000000Z,
IRIS,GS,KAN16,37.225617,-98.064717,2015-04-15T00:00:00.000000Z,
IRIS,GS,KAN17,37.04407,-97.76475,2015-04-16T15:00:00.000000Z,
IRIS,GS,KS20,37.22973,-97.55432,2015-11-19T18:00:00.000000Z,
IRIS,GS,KS21,37.28649,-97.66302,2015-11-19T15:30:00.000000Z,
IRIS,GS,MT01,46.952991,-112.656059,2017-07-08T00:00:00.000000Z,
IRIS,GS,MT02,46.858528,-112.88047,2017-07-09T00:00:00.000000Z,
IRIS,GS,MT03,46.912991,-112.497528,2017-07-09T00:00:00.000000Z,
IRIS,GS,OK020,35.537525,-96.876846,2011-11-08T00:00:00.000000Z,
IRIS,GS,OK021,35.602299,-96.718361,2011-11-10T00:00:00.000000Z,
IRIS,GS,OK022,35.536839,-96.664909,2011-11-09T00:00:00.000000Z,
IRIS,GS,OK025,35.5811,-97.337898,2013-12-18T00:00:00.000000Z,
IRIS,GS,OK029,35.79657,-97.45486,2014-02-13T00:00:00.000000Z,
IRIS,GS,OK030,35.92778,-96.78375,2014-10-16T00:00:00.000000Z,
IRIS,GS,OK031,35.95309,-96.83911,2014-10-15T22:00:00.000000Z,
IRIS,GS,OK032,36.80382,-98.21041,2015-03-04T00:00:00.000000Z,
IRIS,GS,OK033,36.044375,-96.9382,2015-11-21T00:00:00.000000Z,
IRIS,GS,OK035,36.70819,-98.7097,2015-12-18T17:38:00.000000Z,
IRIS,GS,OK038,36.478211,-98.742223,2016-02-17T00:00:00.000000Z,
IRIS,GS,OK048,36.41622,-96.94374,2016-09-08T00:00:00.000000Z,
IRIS,GS,OK052,35.993611,-96.802778,2016-11-08T23:43:00.000000Z,
IRIS,GS,PTRD,38.11956,-77.622711,2011-08-26T00:00:00.000000Z,
IRIS,GS,RDG13,37.42894,-121.743446,2011-06-07T00:00:00.000000Z,
IRIS,GS,SN13,38.342049,-122.313789,2014-08-28T00:00:00.000000Z,
IRIS,GS,SN14,38.33326,-122.307953,2014-08-28T00:00:00.000000Z,
IRIS,GS,SN15,38.324844,-122.300774,2014-08-28T00:00:00.000000Z,
IRIS,GS,SN16,38.317223,-122.298615,2014-08-28T00:00:00.000000Z,
IRIS,GS,SN17,38.287579,-122.294144,2014-08-29T01:12:00.000000Z,
IRIS,GS,SN18,38.278099,-122.292259,2014-08-29T00:00:00.000000Z,
IRIS,GS,SPRD,38.023399,-77.879951,2011-08-24T00:00:00.000000Z,
IRIS,GT,BOSA,-28.6141,25.2555,1993-02-26T00:00:00.000000Z,
IRIS,GT,CPUP,-26.33064,-57.33087,1994-07-21T00:00:00.000000Z,
IRIS,GT,DBIC,6.67016,-4.85656,1994-06-17T00:00:00.000000Z,
IRIS,GT,DBIC,6.67015,-4.85653,2011-10-18T12:18:00.000000Z,
IRIS,GT,LBTB,-25.0151,25.59665,1993-04-17T00:00:00.000000Z,
IRIS,GT,LBTB,-25.015124,25.596598,2011-06-14T11:16:00.000000Z,
IRIS,GT,PLCA,-40.73277,-70.55083,1994-11-06T00:00:00.000000Z,
IRIS,GT,PLCA,-40.732739,-70.550804,2002-09-04T10:42:03.000000Z,
IRIS,HL,ARG,36.213558,28.12122,1997-10-14T00:00:00.000000Z,
IRIS,HL,ITM,37.178719,21.92522,1997-06-05T00:00:00.000000Z,
IRIS,HL,KEK,39.7127,19.79623,2000-02-29T00:00:00.000000Z,
IRIS,HL,RDO,41.145031,25.53553,1998-12-15T00:00:00.000000Z,
IRIS,HT,AGG,39.021099,22.336,2006-01-01T00:00:00.000000Z,
IRIS,HT,ALN,40.895699,26.0497,2006-01-01T00:00:00.000000Z,
IRIS,HT,FNA,40.781799,21.383499,2006-01-01T00:00:00.000000Z,
IRIS,HT,LIT,40.1008,22.49,2006-01-01T00:00:00.000000Z,
IRIS,HT,LKD,38.707199,20.6506,2006-01-01T00:00:00.000000Z,
IRIS,HT,SOH,40.821701,23.353901,2006-01-01T00:00:00.000000Z,
IRIS,HV,AHUD,19.371567,-155.263462,2011-04-06T00:00:00.000000Z,
IRIS,HV,AIND,19.372067,-155.457228,2010-10-27T00:00:00.000000Z,
IRIS,HV,ALEP,19.541178,-155.644036,2011-11-03T00:00:00.000000Z,
IRIS,HV,BYL,19.412086,-155.259872,1997-02-01T00:00:00.000000Z,
IRIS,HV,DESD,19.333395,-155.38565,2011-05-05T00:00:00.000000Z,
IRIS,HV,ELEP,19.450382,-155.524977,2017-09-21T00:00:00.000000Z,
IRIS,HV,HLPD,19.296253,-155.30748,2011-04-26T00:00:00.000000Z,
IRIS,HV,HOVE,19.164518,-155.749057,2016-06-29T00:00:00.000000Z,
IRIS,HV,HPUD,19.775885,-155.456039,2011-07-13T00:00:00.000000Z,
IRIS,HV,HSSD,19.602682,-155.483002,2011-05-19T00:00:00.000000Z,
IRIS,HV,HUAD,19.68466,-155.835697,2011-08-18T00:00:00.000000Z,
IRIS,HV,JCUZ,19.384045,-155.101578,2011-04-13T00:00:00.000000Z,
IRIS,HV,JOKA,19.433613,-155.004449,2012-09-17T00:00:00.000000Z,
IRIS,HV,KOHD,20.1252,-155.777,2011-07-21T00:00:00.000000Z,
IRIS,HV,MLOD,19.493172,-155.386023,2011-04-12T00:00:00.000000Z,
IRIS,HV,MOKD,19.485115,-155.597133,2010-10-08T00:00:00.000000Z,
IRIS,HV,NAGD,19.698593,-155.024497,2011-06-28T00:00:00.000000Z,
IRIS,HV,NAHU,19.4151,-155.23831,2013-08-06T00:00:00.000000Z,
IRIS,HV,NPOC,19.39296,-155.109605,2007-07-05T00:00:00.000000Z,
IRIS,HV,NPT,19.412033,-155.280922,2007-04-01T00:00:00.000000Z,
IRIS,HV,OBL,19.417662,-155.284097,1998-02-01T00:00:00.000000Z,
IRIS,HV,PAUD,19.373785,-155.2155,2011-03-30T00:00:00.000000Z,
IRIS,HV,PUHI,19.385509,-155.251312,2015-05-14T22:00:00.000000Z,
IRIS,HV,RIMD,19.395368,-155.273643,2010-11-10T00:00:00.000000Z,
IRIS,HV,RSDD,19.46017,-155.27533,2011-07-06T00:00:00.000000Z,
IRIS,HV,SPDD,18.97936,-155.667897,2010-10-27T00:00:00.000000Z,
IRIS,HV,STCD,19.38486,-155.12543,2011-03-14T00:00:00.000000Z,
IRIS,HV,TOUO,19.504323,-155.702741,2013-07-23T00:00:00.000000Z,
IRIS,HV,UWE,19.420972,-155.291162,1959-10-01T00:00:00.000000Z,
IRIS,HV,WILD,19.466578,-155.58107,2010-11-04T00:00:00.000000Z,
IRIS,HW,CCRK,46.558498,-119.854797,2008-12-02T00:00:00.000000Z,
IRIS,HW,DDRF,46.4911,-119.059502,2008-12-02T00:00:00.000000Z,
IRIS,HW,PHIN,45.8951,-119.927803,2008-12-02T00:00:00.000000Z,
IRIS,IC,BJT,40.0183,116.1679,1994-05-25T00:00:00.000000Z,
IRIS,IC,ENH,30.2762,109.4944,1997-09-20T00:00:00.000000Z,
IRIS,IC,KMI,25.1233,102.74,1996-04-27T00:00:00.000000Z,
IRIS,IC,LSA,29.7031,91.127,1995-08-03T00:00:00.000000Z,
IRIS,IC,MDJ,44.617,129.5908,1996-11-09T00:00:00.000000Z,
IRIS,IC,MDJ,44.61763,129.59341,2013-05-05T04:00:00.000000Z,
IRIS,IC,QIZ,19.0291,109.8445,2001-02-18T00:00:00.000000Z,
IRIS,IC,WMQ,43.8138,87.7049,1995-09-23T00:00:00.000000Z,
IRIS,IC,XAN,34.0313,108.9237,1992-11-29T00:00:00.000000Z,
IRIS,II,AAK,42.6375,74.4942,1990-10-12T00:00:00.000000Z,
IRIS,II,ABPO,-19.018,47.229,2007-04-04T00:00:00.000000Z,
IRIS,II,ARU,56.4302,58.5625,1988-09-14T00:00:00.000000Z,
IRIS,II,ARU,56.4293,58.5615,2009-09-28T00:00:00.000000Z,
IRIS,II,BFO,48.3301,8.3296,1996-05-29T00:00:00.000000Z,
IRIS,II,BORG,64.7474,-21.3268,1994-07-30T00:00:00.000000Z,
IRIS,II,BRVK,53.0581,70.2828,1994-09-01T00:00:00.000000Z,
IRIS,II,CMLA,37.7637,-25.5243,1996-03-10T00:00:00.000000Z,
IRIS,II,DGAR,-7.4121,72.4525,2004-01-22T00:00:00.000000Z,
IRIS,II,FFC,54.725,-101.9783,1993-08-28T00:00:00.000000Z,
IRIS,II,KIV,43.9562,42.6888,1988-09-14T00:00:00.000000Z,
IRIS,II,KIV,43.9553,42.6863,1994-02-01T00:00:00.000000Z,
IRIS,II,KURK,50.7154,78.6202,1995-03-26T00:00:00.000000Z,
IRIS,II,KWJN,9.2873,167.5369,2017-07-29T00:00:00.000000Z,
IRIS,II,MSEY,-4.6737,55.4792,1995-05-15T00:00:00.000000Z,
IRIS,II,NIL,33.6506,73.2686,1994-12-18T00:00:00.000000Z,
IRIS,II,NNA,-11.9875,-76.8422,1988-06-22T00:00:00.000000Z,
IRIS,II,OBN,55.1146,36.5674,1988-09-14T00:00:00.000000Z,
IRIS,II,PALK,7.2728,80.7022,2000-08-22T00:00:00.000000Z,
IRIS,II,RPN,-27.1267,-109.3344,1987-06-15T00:00:00.000000Z,
IRIS,II,SHEL,-15.9594,-5.7455,1995-06-19T00:00:00.000000Z,
IRIS,II,TAU,-42.9099,147.3204,1994-01-17T00:00:00.000000Z,
IRIS,IM,H09N1,-37.068111,-12.31523,,
IRIS,IM,H09W1,-37.09716,-12.33504,,
IRIS,IM,IL31,64.7714,-146.886597,,
IRIS,IM,MK31,46.793682,82.290565,,
IRIS,IM,NV11,38.4328,-118.153,,
IRIS,IM,NV31,38.4328,-118.155403,,
IRIS,IM,PD31,42.7672,-109.558098,,
IRIS,IM,PD32,42.7672,-109.558098,,
IRIS,IM,TKL,35.658001,-83.774002,,
IRIS,IM,TX11,29.3344,-103.667702,,
IRIS,IM,TX31,29.334299,-103.667702,,
IRIS,IN,MNC,8.281517,73.059799,2008-01-31T00:00:00.000000Z,
IRIS,IN,PBA,11.655733,92.743919,2008-02-01T00:00:00.000000Z,
IRIS,IN,SHL,25.566816,91.855949,2007-10-14T00:00:00.000000Z,
IRIS,IU,ADK,51.8823,-176.6842,2009-07-19T00:00:00.000000Z,
IRIS,IU,AFI,-13.9085,-171.7827,1993-08-24T00:00:00.000000Z,
IRIS,IU,ANMO,34.9459,-106.4572,1989-08-29T00:00:00.000000Z,
IRIS,IU,ANMO,34.9502,-106.4602,2000-10-19T16:00:00.000000Z,
IRIS,IU,ANMO,34.94591,-106.4572,2002-11-19T21:07:00.000000Z,
IRIS,IU,ANTO,39.868,32.7934,2002-05-30T00:00:00.000000Z,
IRIS,IU,BILL,68.0653,166.4531,1995-08-16T00:00:00.000000Z,
IRIS,IU,CCM,38.0557,-91.2446,1989-07-28T00:00:00.000000Z,
IRIS,IU,CHTO,18.8141,98.9443,2009-09-19T14:35:27.000000Z,
IRIS,IU,COLA,64.873599,-147.8616,2009-07-09T00:00:00.000000Z,
IRIS,IU,COR,44.5855,-123.3046,1989-10-26T00:00:00.000000Z,
IRIS,IU,CTAO,-20.0882,146.2545,1991-06-17T00:00:00.000000Z,
IRIS,IU,CTAO,-20.08765,146.24998,2019-05-17T00:00:00.000000Z,
IRIS,IU,DAV,7.0697,125.5791,2011-07-27T00:00:00.000000Z,
IRIS,IU,FUNA,-8.5259,179.1966,2004-01-21T20:24:00.000000Z,
IRIS,IU,HKT,29.9618,-95.8384,1995-07-11T00:00:00.000000Z,
IRIS,IU,HKT,29.96478,-95.83812,2018-01-26T16:50:00.000000Z,
IRIS,IU,HNR,-9.4387,159.9475,1993-10-22T00:00:00.000000Z,
IRIS,IU,INCN,37.4776,126.6239,1995-07-20T00:00:00.000000Z,
IRIS,IU,INCN,37.47768,126.62436,2013-11-21T00:00:00.000000Z,
IRIS,IU,KBL,34.5408,69.0432,2006-11-09T00:00:00.000000Z,
IRIS,IU,KIEV,50.7012,29.2242,2017-11-07T00:00:00.000000Z,
IRIS,IU,LCO,-29.011,-70.7004,1998-12-20T00:00:00.000000Z,
IRIS,IU,LCO,-29.011,-70.7005,2014-08-04T00:00:00.000000Z,
IRIS,IU,LSZ,-15.2779,28.1882,1994-08-05T00:00:00.000000Z,
IRIS,IU,MA2,59.5756,150.77,2010-07-20T00:00:00.000000Z,
IRIS,IU,MACI,28.2502,-16.508199,2008-08-01T00:00:00.000000Z,
IRIS,IU,MAJO,36.54567,138.20406,1990-08-18T00:00:00.000000Z,
IRIS,IU,MAKZ,46.808,81.977,2010-09-10T00:00:00.000000Z,
IRIS,IU,MIDW,28.2156,-177.3698,1999-10-23T00:00:00.000000Z,
IRIS,IU,NWAO,-32.9277,117.239,1991-11-25T00:00:00.000000Z,
IRIS,IU,OTAV,0.2376,-78.4508,2009-04-01T00:00:00.000000Z,
IRIS,IU,PAB,39.5446,-4.3499,2009-08-14T00:00:00.000000Z,
IRIS,IU,PAYG,-0.6742,-90.2861,1998-06-19T00:00:00.000000Z,
IRIS,IU,PET,53.0233,158.6499,1993-08-28T00:00:00.000000Z,
IRIS,IU,PMSA,-64.7744,-64.0489,1993-03-03T00:00:00.000000Z,
IRIS,IU,POHA,19.7573,-155.5326,1999-11-13T00:00:00.000000Z,
IRIS,IU,RAO,-29.245,-177.929,2004-07-18T00:00:00.000000Z,
IRIS,IU,RAR,-21.2125,-159.7733,1992-03-07T00:00:00.000000Z,
IRIS,IU,RCBR,-5.8274,-35.9014,2009-07-29T00:00:00.000000Z,
IRIS,IU,RSSD,44.1212,-104.0359,2009-09-09T00:00:00.000000Z,
IRIS,IU,SAML,-8.9489,-63.1831,2003-05-05T00:00:00.000000Z,
IRIS,IU,SBA,-77.8492,166.7572,1998-10-28T00:00:00.000000Z,
IRIS,IU,SFJD,66.9961,-50.62076,2005-01-31T16:00:00.000000Z,
IRIS,IU,SJG,18.1091,-66.15,2010-04-16T00:00:00.000000Z,
IRIS,IU,SNZO,-41.3087,174.7043,1992-04-07T00:00:00.000000Z,
IRIS,IU,TATO,24.9735,121.4971,2009-09-22T13:56:41.000000Z,
IRIS,IU,TIXI,71.6341,128.8667,1995-08-15T00:00:00.000000Z,
IRIS,IU,TRQA,-38.0568,-61.9787,2009-05-19T20:00:00.000000Z,
IRIS,IU,TSUM,-19.2022,17.5838,1994-08-19T00:00:00.000000Z,
IRIS,IU,TUC,32.3098,-110.7847,2009-05-28T19:40:00.000000Z,
IRIS,IU,ULN,47.8651,107.0532,1994-10-31T00:00:00.000000Z,
IRIS,IU,WAKE,19.2834,166.652,2007-11-15T00:00:00.000000Z,
IRIS,IU,WCI,38.2289,-86.2939,1997-07-17T00:00:00.000000Z,
IRIS,IU,WVT,36.1297,-87.83,1997-04-16T00:00:00.000000Z,
IRIS,IU,XMAS,2.0448,-157.4457,1997-08-22T00:00:00.000000Z,
IRIS,IU,YAK,62.031,129.6805,1993-08-31T00:00:00.000000Z,
IRIS,IU,YSS,46.9587,142.7604,1992-05-31T00:00:00.000000Z,
IRIS,IW,DCID1,43.594501,-111.184502,2005-03-16T00:00:00.000000Z,
IRIS,IW,DLMT,45.3625,-112.5964,2005-08-12T00:00:00.000000Z,
IRIS,IW,FLWY,44.083002,-110.699888,2005-08-17T00:00:00.000000Z,
IRIS,IW,FXWY,43.6381,-111.0268,2009-07-15T00:00:00.000000Z,
IRIS,IW,IMW,43.89303,-110.94343,2004-08-21T00:00:00.000000Z,
IRIS,IW,LOHW,43.6124,-110.6038,2004-08-10T00:00:00.000000Z,
IRIS,IW,MFID,43.4151,-115.8278,2009-10-11T00:00:00.000000Z,
IRIS,IW,MOOW,43.7486,-110.7448,2004-07-01T00:00:00.000000Z,
IRIS,IW,PHWY,41.3016,-105.4577,2004-10-11T00:00:00.000000Z,
IRIS,IW,PLID,45.08757,-116.00025,2009-08-22T00:00:00.000000Z,
IRIS,IW,REDW,43.3624,-110.8518,2003-07-17T00:00:00.000000Z,
IRIS,IW,RRI2,43.347401,-111.320099,2004-07-01T00:00:00.000000Z,
IRIS,IW,RWWY,41.6889,-107.2102,2004-09-09T00:00:00.000000Z,
IRIS,IW,SMCO,39.1776,-106.9739,2005-06-23T00:00:00.000000Z,
IRIS,IW,SNOW,43.4599,-110.75408,2004-07-01T00:00:00.000000Z,
IRIS,IW,TPAW,43.48965,-110.95675,2004-07-01T00:00:00.000000Z,
IRIS,JP,JGF,35.604,137.354172,1996-09-17T00:00:00.000000Z,
IRIS,JP,JHS,35.001831,133.113663,1996-10-01T00:00:00.000000Z,
IRIS,K5,TRON,27.497847,90.509239,2017-06-22T09:08:57.000000Z,
IRIS,K5,WANG,27.503237,89.898758,2017-06-17T11:00:00.000000Z,
IRIS,KC,TARG,41.729099,77.804802,2008-08-14T00:00:00.000000Z,
IRIS,KG,TJN,36.37719,127.363808,1998-04-13T00:00:00.000000Z,
IRIS,KO,BALB,39.639999,27.879999,2007-06-15T00:00:00.000000Z,
IRIS,KO,BNN,38.8522,35.847198,2007-01-23T00:00:00.000000Z,
IRIS,KO,DKL,39.071301,26.9053,2010-07-22T00:00:00.000000Z,
IRIS,KO,ELL,36.748299,29.908501,2006-10-20T00:00:00.000000Z,
IRIS,KO,GAZ,37.172199,37.209702,2010-08-18T00:00:00.000000Z,
IRIS,KO,GURO,38.5509,42.032219,2011-10-25T00:00:00.000000Z,
IRIS,KO,KARS,40.6152,43.0937,2010-10-13T00:00:00.000000Z,
IRIS,KO,MDUB,40.471199,31.197701,2008-05-22T00:00:00.000000Z,
IRIS,KP,UPNV,72.782898,-56.1395,2013-08-01T00:00:00.000000Z,
IRIS,KR,ANVS,42.78611,77.66722,2007-11-27T00:00:00.000000Z,
IRIS,KR,ARK,41.8,71.96667,2008-03-25T00:00:00.000000Z,
IRIS,KR,ARLS,41.85444,74.32889,2008-07-18T00:00:00.000000Z,
IRIS,KR,ARSB,41.32333,72.98111,2009-11-28T00:00:00.000000Z,
IRIS,KR,BOOM,42.49222,75.94222,2010-06-05T00:00:00.000000Z,
IRIS,KR,BTK,40.0575,70.81805,2009-07-25T00:00:00.000000Z,
IRIS,KR,DRK,39.48333,71.805,2011-03-12T00:00:00.000000Z,
IRIS,KR,EKS,42.671944,73.793611,2007-10-18T00:00:00.000000Z,
IRIS,KR,FRU1,42.81233,74.6284,2010-06-30T00:00:00.000000Z,
IRIS,KR,KDJ,42.12722,77.19444,2011-04-15T00:00:00.000000Z,
IRIS,KR,NRN,41.42222,75.97,2008-06-15T00:00:00.000000Z,
IRIS,KR,OHH,40.52444,72.785,2008-03-23T00:00:00.000000Z,
IRIS,KR,PRZ,42.5,78.4,2010-11-01T00:00:00.000000Z,
IRIS,KR,TOKL,41.98333,72.86806,2009-11-27T00:00:00.000000Z,
IRIS,KR,TRKS,41.4625,71.1733,2014-04-24T00:03:37.000000Z,
IRIS,KS,BUS2,35.2486,129.112503,2010-11-01T00:00:00.000000Z,
IRIS,KS,CHJ2,36.873001,127.9748,2009-12-21T00:00:00.000000Z,
IRIS,KS,NAWB,35.421299,127.3964,2012-11-30T00:00:00.000000Z,
IRIS,KS,SEO2,37.4939,126.917099,2010-11-01T00:00:00.000000Z,
IRIS,KY,CUSSO,36.552237,-89.329702,2009-10-21T00:00:00.000000Z,
IRIS,KY,FLKY,38.426064,-83.750572,2005-06-15T00:00:00.000000Z,
IRIS,KY,HEKY,37.815014,-87.592155,2014-03-24T00:00:00.000000Z,
IRIS,KY,LOKY,37.236576,-88.29451,2005-06-15T00:00:00.000000Z,
IRIS,KY,PKKY,38.382999,-83.034088,2005-06-13T00:00:00.000000Z,
IRIS,KZ,ABKAR,49.2556,59.9431,2003-12-28T00:00:00.000000Z,
IRIS,KZ,AKTK,50.434799,58.016701,1999-08-01T00:00:00.000000Z,
IRIS,KZ,AKTO,50.434799,58.016399,2005-07-27T00:00:00.000000Z,
IRIS,KZ,BAL1,50.127201,78.8974,2005-08-01T00:00:00.000000Z,
IRIS,KZ,BAL2,49.980499,79.043602,2005-08-01T00:00:00.000000Z,
IRIS,KZ,BAL3,49.852798,79.930603,2005-08-01T00:00:00.000000Z,
IRIS,KZ,BAL4,49.861599,78.724197,2005-08-01T00:00:00.000000Z,
IRIS,KZ,BVAR,53.024921,70.388527,2002-07-15T00:00:00.000000Z,
IRIS,KZ,CHKZ,53.676201,70.615196,1994-07-23T07:40:52.000000Z,
IRIS,KZ,DEG5,49.721001,78.014503,2006-06-29T00:00:00.000000Z,
IRIS,KZ,DEG5,49.7249,78.0081,2018-05-25T00:00:00.000000Z,
IRIS,KZ,KNDC,43.217201,76.965797,2004-05-13T09:01:00.000000Z,
IRIS,KZ,MAKZ,46.807999,81.976997,1996-09-14T00:00:00.000000Z,
IRIS,KZ,MKAR,46.793701,82.290398,2000-08-28T00:00:00.000000Z,
IRIS,KZ,OTUK,48.244301,72.337502,2010-02-09T00:00:00.000000Z,
IRIS,KZ,PDGK,43.3276,79.4849,2010-02-09T00:00:00.000000Z,
IRIS,KZ,SAU1,49.8648,77.5905,2007-06-06T00:00:00.000000Z,
IRIS,KZ,SAU2,50.0364,77.5456,2007-06-06T00:00:00.000000Z,
IRIS,LB,BMN,40.4314,-117.221001,1994-06-23T00:00:00.000000Z,
IRIS,LB,DAC,36.277,-117.593697,1996-12-23T00:00:00.000000Z,
IRIS,LB,MVU,38.5037,-112.212303,1998-12-08T00:00:00.000000Z,
IRIS,LB,TPH,38.075001,-117.222504,1996-12-23T00:00:00.000000Z,
IRIS,LD,ACCN,43.3843,-73.6678,1999-11-10T00:00:00.000000Z,
IRIS,LD,ALLY,41.6492,-80.1448,2002-05-30T00:00:00.000000Z,
IRIS,LD,ASNY,44.39812,-73.8103,2016-06-17T00:00:00.000000Z,
IRIS,LD,BMNY,44.83987,-74.5065,2011-07-29T00:00:00.000000Z,
IRIS,LD,BRNJ,40.682695,-74.565742,1999-11-08T00:00:00.000000Z,
IRIS,LD,BRNY,41.414036,-74.011889,2006-06-16T00:00:00.000000Z,
IRIS,LD,CCNY,42.92732,-78.8551,2013-12-05T00:00:00.000000Z,
IRIS,LD,CFNY,44.16515,-75.05135,2015-10-08T00:00:00.000000Z,
IRIS,LD,CPNY,40.7911,-73.9602,2002-02-21T00:00:00.000000Z,
IRIS,LD,CTNY,43.9879,-75.645302,2005-11-08T00:00:00.000000Z,
IRIS,LD,CUNY,40.73493,-73.817611,2002-06-02T00:00:00.000000Z,
IRIS,LD,FMPA,40.0478,-76.3208,2005-02-22T00:00:00.000000Z,
IRIS,LD,FOR,40.8603,-73.8852,2002-04-18T00:00:00.000000Z,
IRIS,LD,FRNY,44.835,-73.5883,2003-11-13T00:00:00.000000Z,
IRIS,LD,GEDE,39.811298,-75.635803,2016-02-01T00:00:00.000000Z,
IRIS,LD,GPD,41.0177,-74.4608,1976-01-01T00:00:00.000000Z,
IRIS,LD,HBVT,44.36306,-73.06326,1980-01-01T00:00:00.000000Z,
IRIS,LD,HCNY,42.6968,-74.3984,2006-03-01T00:00:00.000000Z,
IRIS,LD,KSCT,41.72612,-73.48425,2011-11-16T00:00:00.000000Z,
IRIS,LD,LUPA,40.5987,-75.3718,2001-01-01T00:00:00.000000Z,
IRIS,LD,MCVT,43.95367,-72.99175,2011-08-04T00:00:00.000000Z,
IRIS,LD,MMNY,42.731683,-77.906535,2008-08-06T00:00:00.000000Z,
IRIS,LD,MVL,39.999395,-76.348888,2001-02-12T00:00:00.000000Z,
IRIS,LD,NCB,43.973468,-74.22307,1992-01-01T00:00:00.000000Z,
IRIS,LD,NPNY,41.75459,-74.143539,2007-09-07T00:00:00.000000Z,
IRIS,LD,ODNJ,41.0829,-74.6056,2007-06-23T00:00:00.000000Z,
IRIS,LD,PAL,41.0056,-73.9079,1980-01-01T00:00:00.000000Z,
IRIS,LD,PANJ,40.3769,-74.7029,2008-02-16T00:00:00.000000Z,
IRIS,LD,POTS,44.6634,-74.9732,2006-05-22T00:00:00.000000Z,
IRIS,LD,PTN,44.57,-74.981903,1971-01-01T00:00:00.000000Z,
IRIS,LD,PTNY,44.5578,-74.9508,2015-07-16T00:00:00.000000Z,
IRIS,LD,SDMD,39.4102,-76.8403,2001-11-01T00:00:00.000000Z,
IRIS,LD,TRNY,41.145,-74.22443,2014-09-04T00:00:00.000000Z,
IRIS,LD,UCCT,41.794323,-72.225545,2005-03-04T00:00:00.000000Z,
IRIS,LD,WCNY,43.981,-75.6549,2007-06-27T00:00:00.000000Z,
IRIS,LD,WUPA,39.932417,-75.605983,2014-07-01T00:00:00.000000Z,
IRIS,LD,WVNY,42.4062,-78.6042,2010-08-05T00:00:00.000000Z,
IRIS,LX,MORF,37.304321,-8.652672,2005-06-01T00:00:00.000000Z,
IRIS,MB,BUT,46.010833,-112.556667,2001-08-15T00:00:00.000000Z,
IRIS,MB,JTMT,47.74667,-114.2825,2001-08-15T00:00:00.000000Z,
IRIS,MI,ANA2,16.3412,145.7115,2000-01-01T00:00:00.000000Z,
IRIS,MN,AQU,42.354,13.405,1988-08-01T00:00:00.000000Z,
IRIS,MN,BNI,45.051998,6.678,1988-04-30T00:00:00.000000Z,
IRIS,MN,CEL,38.2603,15.8939,2003-10-29T00:00:00.000000Z,
IRIS,MN,CII,41.723,14.305,1994-10-19T00:00:00.000000Z,
IRIS,MN,CUC,39.993801,15.8155,2003-07-16T00:00:01.000000Z,
IRIS,MN,IDI,35.287998,24.889999,1994-10-02T00:00:00.000000Z,
IRIS,MN,TIP,39.179401,16.758301,2003-09-10T00:00:00.000000Z,
IRIS,MN,TRI,45.709,13.7642,1995-01-01T00:00:00.000000Z,
IRIS,MN,TUE,46.472229,9.34732,2001-11-14T00:00:00.000000Z,
IRIS,MN,VLC,44.159401,10.3864,2001-01-01T00:00:00.000000Z,
IRIS,N4,146B,32.6368,-89.0573,2014-03-02T00:00:00.000000Z,
IRIS,N4,152A,32.6686,-84.7188,2014-02-03T00:00:00.000000Z,
IRIS,N4,154A,32.6131,-83.1066,2014-02-10T00:00:00.000000Z,
IRIS,N4,255A,31.9263,-82.4758,2014-02-03T00:00:00.000000Z,
IRIS,N4,257A,31.9746,-81.0261,2014-01-21T00:00:00.000000Z,
IRIS,N4,ABTX,32.6238,-99.6431,2018-08-15T00:00:00.000000Z,
IRIS,N4,J54A,43.2728,-78.639198,2014-10-17T00:00:00.000000Z,
IRIS,N4,J55A,43.2657,-77.8167,2014-10-10T00:00:00.000000Z,
IRIS,N4,J56A,43.276001,-76.857903,2015-06-18T00:00:00.000000Z,
IRIS,N4,J57A,43.4099,-75.9968,2015-06-22T00:00:00.000000Z,
IRIS,N4,J58A,43.360298,-75.285202,2015-08-10T00:00:00.000000Z,
IRIS,N4,J59A,43.464699,-74.504097,2015-06-15T00:00:00.000000Z,
IRIS,N4,L59A,42.1902,-75.0426,2015-06-15T00:00:00.000000Z,
IRIS,N4,M52A,41.540501,-81.357002,2014-10-28T00:00:00.000000Z,
IRIS,N4,M55A,41.468601,-78.7649,2014-10-14T00:00:00.000000Z,
IRIS,N4,N53A,40.8065,-80.8377,2014-10-24T00:00:00.000000Z,
IRIS,N4,N62A,40.9313,-73.4677,2018-08-15T00:00:00.000000Z,
IRIS,N4,O52A,40.1158,-81.8361,2014-12-01T00:00:00.000000Z,
IRIS,N4,P53A,39.4868,-81.3896,2014-11-24T00:00:00.000000Z,
IRIS,N4,P61A,39.6734,-74.7919,2015-02-12T00:00:00.000000Z,
IRIS,N4,Q51A,39.026,-83.3456,2014-05-21T00:00:00.000000Z,
IRIS,N4,Q52A,38.9622,-82.2669,2014-12-01T00:00:00.000000Z,
IRIS,N4,Q54A,38.9836,-80.8338,2014-12-08T00:00:00.000000Z,
IRIS,N4,R40B,38.2909,-92.2684,2014-03-10T00:00:00.000000Z,
IRIS,N4,R49A,38.2916,-85.1714,2014-04-23T00:00:00.000000Z,
IRIS,N4,R50A,38.2816,-84.3274,2014-04-23T00:00:00.000000Z,
IRIS,N4,R53A,38.3307,-81.952202,2014-12-09T00:00:00.000000Z,
IRIS,N4,R55A,38.2825,-80.1195,2015-05-01T00:00:00.000000Z,
IRIS,N4,R58B,37.9636,-77.8787,2015-04-28T00:00:00.000000Z,
IRIS,N4,S39B,37.6909,-93.3226,2014-02-22T00:00:00.000000Z,
IRIS,N4,S44A,37.6936,-89.2551,2013-12-16T00:00:00.000000Z,
IRIS,N4,S51A,37.6392,-83.5935,2014-04-21T00:00:00.000000Z,
IRIS,N4,S54A,37.7997,-81.3114,2015-04-28T00:00:00.000000Z,
IRIS,N4,S57A,37.7605,-78.9536,2015-04-28T00:00:00.000000Z,
IRIS,N4,T35B,36.9162,-96.5119,2014-02-19T00:00:00.000000Z,
IRIS,N4,T42B,37.0301,-91.0927,2014-02-13T00:00:00.000000Z,
IRIS,N4,T45B,37.0159,-88.6459,2014-02-11T00:00:00.000000Z,
IRIS,N4,T47A,36.9881,-87.1055,2013-12-16T00:00:00.000000Z,
IRIS,N4,T50A,37.0204,-84.8384,2014-04-17T00:00:00.000000Z,
IRIS,N4,U49A,36.512901,-85.779602,2014-02-24T00:00:00.000000Z,
IRIS,N4,U56A,36.3472,-80.3829,2015-04-13T00:00:00.000000Z,
IRIS,N4,V48A,35.74,-86.8219,2013-12-16T00:00:00.000000Z,
IRIS,N4,V51A,35.803299,-84.351097,2014-03-10T00:00:00.000000Z,
IRIS,N4,V52A,35.841702,-83.595901,2014-03-08T00:00:00.000000Z,
IRIS,N4,V53A,35.6694,-82.8124,2014-03-14T00:00:00.000000Z,
IRIS,N4,V55A,35.8518,-81.2149,2014-12-19T00:00:00.000000Z,
IRIS,N4,W50A,35.2002,-85.3119,2014-03-09T00:00:00.000000Z,
IRIS,N4,W52A,35.0935,-83.9277,2014-03-11T00:00:00.000000Z,
IRIS,N4,W57A,35.1529,-79.9928,2015-01-30T00:00:00.000000Z,
IRIS,N4,X48A,34.4517,-87.0452,2013-12-16T00:00:00.000000Z,
IRIS,N4,X51A,34.5658,-84.8574,2014-04-12T00:00:00.000000Z,
IRIS,N4,Y57A,34.017,-80.3915,2015-01-21T00:00:00.000000Z,
IRIS,N4,Y58A,33.9057,-79.6665,2015-01-25T00:00:00.000000Z,
IRIS,NC,AFD,38.945961,-120.968971,1984-01-01T00:00:00.000000Z,
IRIS,NC,BBGB,36.578484,-121.039566,2008-06-27T20:52:00.000000Z,
IRIS,NC,BJOB,36.610867,-121.314667,2007-05-16T00:00:00.000000Z,
IRIS,NC,BSG,36.413845,-121.25515,1984-01-01T00:00:00.000000Z,
IRIS,NC,BSR,36.667431,-121.520325,1984-01-01T00:00:00.000000Z,
IRIS,NC,C011,37.906422,-122.292381,2009-05-18T21:58:00.000000Z,
IRIS,NC,C030,37.154915,-121.609894,2009-10-07T18:45:00.000000Z,
IRIS,NC,C055,37.657452,-122.110352,2011-03-28T16:57:00.000000Z,
IRIS,NC,C072,37.285805,-121.75589,2013-05-01T17:44:00.000000Z,
IRIS,NC,CADB,37.16346,-121.62645,2001-06-13T00:00:00.000000Z,
IRIS,NC,CAG,37.857269,-122.422661,2002-03-15T12:00:00.000000Z,
IRIS,NC,CAL,37.450348,-121.800369,1984-01-01T00:00:00.000000Z,
IRIS,NC,CAO,37.34848,-121.534668,1984-01-01T00:00:00.000000Z,
IRIS,NC,CBR,37.816471,-122.063019,1984-01-01T00:00:00.000000Z,
IRIS,NC,CCOB,37.258984,-121.673119,2007-11-15T23:07:00.000000Z,
IRIS,NC,CHR,37.372883,-121.768867,2004-09-01T00:00:00.000000Z,
IRIS,NC,CMC,37.781216,-122.176804,1984-01-01T00:00:00.000000Z,
IRIS,NC,CMK,37.484867,-121.866508,1989-10-20T00:00:00.000000Z,
IRIS,NC,CML,37.47752,-121.652939,1984-01-01T00:00:00.000000Z,
IRIS,NC,CMLP,37.448921,-121.833878,2012-08-20T17:00:00.000000Z,
IRIS,NC,CMM,37.455669,-121.494667,1984-01-01T00:00:00.000000Z,
IRIS,NC,CMOB,37.810417,-121.802719,2005-04-26T23:00:00.000000Z,
IRIS,NC,CMW,37.540531,-121.887344,2012-01-11T21:17:00.000000Z,
IRIS,NC,CNI,37.607948,-121.964561,1993-03-08T00:00:00.000000Z,
IRIS,NC,CRH,37.858841,-121.992638,2000-09-20T00:00:00.000000Z,
IRIS,NC,CRPB,37.912331,-121.907158,2001-06-05T23:00:00.000000Z,
IRIS,NC,CSPB,37.957161,-122.311302,2013-06-13T20:13:00.000000Z,
IRIS,NC,CTA,38.026909,-122.015991,2000-10-04T20:30:00.000000Z,
IRIS,NC,CVL,37.623592,-121.836411,1984-01-01T00:00:00.000000Z,
IRIS,NC,CVP,37.884003,-122.223228,1991-04-26T17:00:00.000000Z,
IRIS,NC,CYD1,37.562893,-122.096695,2003-02-03T00:00:00.000000Z,
IRIS,NC,G001,38.73782,-123.48893,2011-09-13T22:00:00.000000Z,
IRIS,NC,G005,38.592064,-123.319794,2013-05-02T23:04:00.000000Z,
IRIS,NC,GAXB,38.710732,-122.757332,2007-06-13T22:08:00.000000Z,
IRIS,NC,GCPN,38.777122,-122.744728,2012-05-03T22:00:00.000000Z,
IRIS,NC,GCVB,38.769268,-123.01487,2004-08-17T19:00:00.000000Z,
IRIS,NC,GDXB,38.807968,-122.795303,2006-05-23T00:00:00.000000Z,
IRIS,NC,GRT,38.938667,-122.671097,1984-01-01T00:00:00.000000Z,
IRIS,NC,GWR,39.205704,-123.301003,1984-01-01T00:00:00.000000Z,
IRIS,NC,H002,36.87709,-121.647385,2012-08-22T17:45:00.000000Z,
IRIS,NC,HCAB,37.025368,-121.484535,2007-04-04T23:43:00.000000Z,
IRIS,NC,HFM,36.756332,-121.501663,1989-12-13T22:48:00.000000Z,
IRIS,NC,HLP,37.04134,-121.631897,1997-09-06T06:44:00.000000Z,
IRIS,NC,HMOB,36.599346,-121.918144,1998-03-04T20:17:00.000000Z,
IRIS,NC,HPC,37.059933,-121.27578,1996-09-11T00:00:00.000000Z,
IRIS,NC,HTU,36.827202,-121.642883,2007-10-11T21:39:00.000000Z,
IRIS,NC,J002,37.367748,-122.153587,2009-01-29T23:00:00.000000Z,
IRIS,NC,J042,37.806194,-122.436043,2010-06-09T18:53:00.000000Z,
IRIS,NC,J068,37.351501,-121.925262,2015-03-17T22:42:00.000000Z,
IRIS,NC,JBNB,37.123245,-122.156715,2008-05-23T20:22:00.000000Z,
IRIS,NC,JELB,36.927448,-121.827637,2006-07-19T00:00:00.000000Z,
IRIS,NC,JFP,37.360447,-122.189857,2003-06-06T23:59:00.000000Z,
IRIS,NC,JGR,37.516041,-122.458153,2000-09-13T00:00:00.000000Z,
IRIS,NC,JHU,37.214272,-122.171677,2000-09-15T19:55:00.000000Z,
IRIS,NC,JJO,37.20631,-121.977257,2001-05-29T00:20:00.000000Z,
IRIS,NC,JLAB,37.15432,-121.734673,2001-05-09T00:00:00.000000Z,
IRIS,NC,JMP,37.455425,-122.16642,1989-01-03T00:00:00.000000Z,
IRIS,NC,JPC,37.270802,-122.212761,2001-03-07T23:00:00.000000Z,
IRIS,NC,LBR,41.40942,-122.06776,2017-11-08T16:40:00.000000Z,
IRIS,NC,LDL,41.38136,-122.29369,2017-10-05T00:00:00.000000Z,
IRIS,NC,LGY,41.34488,-122.19581,2017-09-14T21:30:00.000000Z,
IRIS,NE,BRYW,41.917,-71.5378,2003-09-22T00:00:00.000000Z,
IRIS,NE,HNH,43.7051,-72.2865,1995-08-31T00:00:00.000000Z,
IRIS,NE,WSPT,41.1712,-73.3278,2008-06-17T00:00:00.000000Z,
IRIS,NI,ACOM,46.547901,13.5149,2003-09-25T00:00:00.000000Z,
IRIS,NI,CGRP,45.8806,11.8047,2005-04-21T00:00:00.000000Z,
IRIS,NI,SABO,45.987499,13.6337,2006-03-20T00:00:00.000000Z,
IRIS,NL,HGN,50.764,5.9317,1993-01-01T00:00:00.000000Z,
IRIS,NM,ARPT,35.756,-89.673,1995-11-16T00:00:00.000000Z,
IRIS,NM,BACM,36.685,-89.865,1997-05-17T00:00:00.000000Z,
IRIS,NM,BETM,36.612,-90.059,1997-07-02T00:00:00.000000Z,
IRIS,NM,BFAR,35.873,-90.084,1996-08-16T00:00:00.000000Z,
IRIS,NM,BLAR,35.369,-90.449,1996-07-01T00:00:00.000000Z,
IRIS,NM,BLO,39.1719,-86.5222,1998-03-27T00:00:00.000000Z,
IRIS,NM,BOAR,35.823,-90.287,1996-08-13T00:00:00.000000Z,
IRIS,NM,BRGM,36.205,-89.859,1995-07-14T00:00:00.000000Z,
IRIS,NM,BRNM,36.724,-89.998,1997-05-13T00:00:00.000000Z,
IRIS,NM,BROM,36.682,-90.184,1997-06-29T00:00:00.000000Z,
IRIS,NM,BVAR,35.443,-90.677,1996-08-12T00:00:00.000000Z,
IRIS,NM,CACT,36.2302,-89.4204,2012-06-06T00:00:00.000000Z,
IRIS,NM,CATM,36.613,-89.647,1997-05-12T00:00:00.000000Z,
IRIS,NM,CGM3,37.29775,-89.6582,2011-07-01T00:00:00.000000Z,
IRIS,NM,CHNM,36.042,-89.929,1995-11-22T00:00:00.000000Z,
IRIS,NM,CHRM,36.852,-89.362,1997-06-11T00:00:00.000000Z,
IRIS,NM,CLTN,36.09115,-86.3315,2013-01-25T00:00:00.000000Z,
IRIS,NM,COKM,36.711,-89.726,1997-06-27T00:00:00.000000Z,
IRIS,NM,CPAR,35.556,-90.236,1996-05-29T00:00:00.000000Z,
IRIS,NM,CWPT,36.009,-89.626,1995-10-10T00:00:00.000000Z,
IRIS,NM,DLAR,35.81,-90.008,1996-08-14T00:00:00.000000Z,
IRIS,NM,DWDM,36.796,-89.493,1997-06-11T00:00:00.000000Z,
